,lat,lng,District
0,1.1504522,52.0880186,Ipswich District (B)
1,-3.0025802,53.3455149,Wirral District (B)
2,-2.2953434,53.5584641,Bury District (B)
3,0.5619122,50.8574833,Hastings District (B)
4,0.0028528,51.4420937,Lewisham London Boro
5,-0.4086035,54.2890237,Scarborough District (B)
6,-4.702077,50.355628,Cornwall
7,-3.5074387,50.721429,Exeter District (B)
8,-0.3032516,51.7293698,St. Albans District (B)
9,-1.52816,54.786148,County Durham
10,-0.0397029,53.5527004,North East Lincolnshire (B)
11,-1.8862388,52.5328668,Birmingham District (B)
12,-2.9314467,54.8696936,Allerdale District (B)
13,0.206206,52.185966,South Cambridgeshire District
14,0.531267,51.258636,Maidstone District (B)
15,0.27891,51.0193611,Wealden District
16,0.208155,52.186941,South Cambridgeshire District
17,-0.5320232,52.1446023,Bedford (B)
18,1.114158,52.927404,North Norfolk District
19,-1.0488823,53.964128,York (B)
20,-2.2668252,53.5030009,Salford District (B)
21,-2.194363,53.5543656,Rochdale District (B)
22,-2.2668252,53.5030009,Salford District (B)
23,-0.1856439,51.9902773,North Hertfordshire District
24,-0.1851617,51.9899552,North Hertfordshire District
25,-0.1900575,51.9837633,North Hertfordshire District
26,-1.9875125,52.4004023,Birmingham District (B)
27,-2.7259121,53.5489828,Wigan District (B)
28,-2.2374933,53.0446985,Newcastle-under-Lyme District (B)
29,-4.1423689,50.3907321,City of Plymouth (B)
30,-2.6887345,52.049588,County of Herefordshire
31,-0.891085,52.236958,West Northamptonshire
32,-1.6921646,52.6422072,Tamworth District (B)
33,-1.816371,52.39434,Solihull District (B)
34,-3.7730116,50.4817366,Teignbridge District
35,-0.882693,52.245744,West Northamptonshire
36,-0.689424,50.7831637,Arun District
37,-1.1909192,53.1521793,Newark and Sherwood District
38,-0.2535104,51.3927332,Merton London Boro
39,-1.829605,52.447764,Birmingham District (B)
40,-0.9128424,52.2712711,West Northamptonshire
41,-0.7191257,52.4687696,North Northamptonshire
42,-1.160866,52.25204,West Northamptonshire
43,-0.6079779,52.2903415,North Northamptonshire
44,-2.3525696,53.3710334,Trafford District (B)
45,-1.3578379,54.8364644,County Durham
46,1.228314,51.93127,Tendring District
47,-0.6357823,52.9260825,North Kesteven District
48,-3.492339,50.584424,Teignbridge District
49,-1.5644081,54.5220672,Darlington (B)
50,-0.6749295,50.7915883,Arun District
51,-5.1980488,50.3100922,Cornwall
52,0.853512,51.068689,Ashford District (B)
53,0.8780359,51.1657321,Ashford District (B)
54,0.7888316,51.0319451,Ashford District (B)
55,1.6363801,52.7107836,Great Yarmouth District (B)
56,0.82422,51.895327,Colchester District (B)
57,-0.135057,53.478046,North East Lincolnshire (B)
58,1.218851,52.6480763,Norwich District (B)
59,-2.3150777,53.4248812,Trafford District (B)
60,-2.3377477,53.4219428,Trafford District (B)
61,-0.0420549,53.557998,North East Lincolnshire (B)
62,-0.315736,51.304195,Mole Valley District
63,-1.3988716,50.9397717,City of Southampton (B)
64,0.0814303,51.4846727,Greenwich London Boro
65,-2.0988991,52.9487106,City of Stoke-on-Trent (B)
66,-4.4548609,50.3579559,Cornwall
67,-4.308314,50.501516,Cornwall
68,-2.3486795,51.6843542,South Gloucestershire
69,-2.2667213,53.5991855,Bury District (B)
70,0.8587758,52.5699891,King's Lynn and West Norfolk District (B)
71,-0.185468,51.315927,Reigate and Banstead District (B)
72,0.9984853,52.1826876,Babergh District
73,-1.992008,52.713463,Cannock Chase District
74,-0.6595752,51.3957805,Windsor and Maidenhead (B)
75,-0.2282955,51.3145628,Reigate and Banstead District (B)
76,-0.182608,51.458354,Wandsworth London Boro
77,0.2925709,51.6175024,Brentwood District (B)
78,0.0661397,51.512515,Newham London Boro
79,-1.393147,53.520582,Barnsley District (B)
80,-1.393147,53.520582,Barnsley District (B)
81,-0.4546299,51.6571129,Three Rivers District
82,-1.1476057,53.157127,Newark and Sherwood District
83,0.6776134,51.5396546,Southend-on-Sea (B)
84,-0.7590032,51.5803998,Buckinghamshire
85,-0.7374027,51.1120187,Waverley District (B)
86,-0.0108731,51.4719405,Greenwich London Boro
87,0.813019,51.165658,Ashford District (B)
88,-1.194892,53.0307971,Gedling District (B)
89,0.1451127,52.6573114,Fenland District
90,0.25092,50.872321,Wealden District
91,-3.0553155,53.8319812,Blackpool (B)
92,-0.034904,52.955637,Boston District (B)
93,-2.9573543,53.7365575,Sefton District (B)
94,-1.045654,50.846855,City of Portsmouth (B)
95,-1.025889,50.868319,Havant District (B)
96,-0.7466477,51.3360547,Surrey Heath District (B)
97,-0.252992,51.41553,Merton London Boro
98,1.7081725,52.584134,Great Yarmouth District (B)
99,0.6407842,51.9375793,Braintree District
100,-0.312118,52.672107,City of Peterborough (B)
101,-1.4571028,52.8960047,City of Derby (B)
102,-1.998091,50.7498946,"Bournemouth, Christchurch and Poole"
103,1.3042932,51.3804228,Thanet District
104,-1.3637195,52.5436284,Hinckley and Bosworth District (B)
105,-1.3636804,52.5422528,Hinckley and Bosworth District (B)
106,-0.540691,51.294337,Guildford District (B)
107,-1.1275229,51.3526113,Basingstoke and Deane District (B)
108,-0.3820521,50.8150946,Worthing District (B)
109,-1.063032,53.501328,Doncaster District (B)
110,-1.9357929,52.6596156,Walsall District (B)
111,-0.1764038,51.6295177,Barnet London Boro
112,-2.0637188,51.8939412,Cheltenham District (B)
113,-2.4607297,51.8749876,County of Herefordshire
114,-1.9181118,53.8715328,Bradford District (B)
115,-2.155146,51.9383066,Tewkesbury District (B)
116,0.2404944,50.8240992,Wealden District
117,-1.3459034,53.4267887,Rotherham District (B)
118,-2.1610642,52.455004,Dudley District (B)
119,-2.2515937,51.3533264,Wiltshire
120,-1.7673937,52.1808419,Cotswold District
121,-0.0461543,51.6667277,Broxbourne District (B)
122,-1.418283,52.885069,City of Derby (B)
123,-4.1209813,51.2069323,North Devon District
124,-0.1900374,52.3326077,Huntingdonshire District
125,-1.0713952,54.0157696,York (B)
126,-0.7320626,51.9759019,Milton Keynes (B)
127,-3.3160601,50.942064,Mid Devon District
128,-1.4980853,52.277988,Warwick District
129,-0.1895692,51.7817968,East Hertfordshire District
130,-1.9565938,52.6228725,Walsall District (B)
131,-0.4918218,52.1209427,Bedford (B)
132,-0.3556713,51.5811524,Harrow London Boro
133,-1.4185819,53.359111,Sheffield District (B)
134,-1.944194,50.726398,"Bournemouth, Christchurch and Poole"
135,-1.1337696,52.583596,Oadby and Wigston District (B)
136,0.3394805,53.1262008,East Lindsey District
137,-0.0860362,51.6427364,Barnet London Boro
138,0.7865139,51.8795937,Colchester District (B)
139,-1.7139954,52.4082938,Solihull District (B)
140,-1.8577679,50.8164461,Dorset
141,-2.9710589,53.4626247,Sefton District (B)
142,0.241087,51.421926,Dartford District (B)
143,-0.3953986,53.73313,City of Kingston upon Hull (B)
144,-2.9884291,53.6582832,Sefton District (B)
145,-0.786657,53.408758,West Lindsey District
146,-0.071099,51.666744,Broxbourne District (B)
147,-3.0525344,53.8483195,Blackpool (B)
148,0.3031173,51.6003314,Brentwood District (B)
149,-3.0288976,53.8347005,Blackpool (B)
150,0.6859182,51.3486842,Swale District (B)
151,-4.0495199,50.3824133,City of Plymouth (B)
152,-0.6823356,52.4910038,North Northamptonshire
153,-0.4505447,53.7258824,East Riding of Yorkshire
154,-0.3777142,51.6005045,Harrow London Boro
155,-2.2743594,51.8346936,Gloucester District (B)
156,-1.2581949,50.8682908,Fareham District (B)
157,-2.016433,53.107858,Staffordshire Moorlands District
158,0.0625366,51.1978696,Sevenoaks District
159,-2.5357562,53.1808303,Cheshire West and Chester (B)
160,-0.1242261,53.5121009,North East Lincolnshire (B)
161,-2.4942995,51.8572497,County of Herefordshire
162,-1.7714978,53.665437,Kirklees District (B)
163,-1.200923,50.802725,Gosport District (B)
164,-1.9879523,52.6002939,Walsall District (B)
165,1.18908,51.9042791,Tendring District
166,-2.4613706,51.0454262,South Somerset District
167,-2.9801511,51.3404348,North Somerset
168,-1.5360843,54.544363,Darlington (B)
169,-1.5210546,52.4310319,Coventry District (B)
170,-2.1144409,53.6331158,Rochdale District (B)
171,-2.573034,51.9240601,County of Herefordshire
172,-0.1539093,51.5782689,Haringey London Boro
173,-0.7492987,51.6153109,Buckinghamshire
174,-1.1162117,51.6213229,South Oxfordshire District
175,-2.9686545,51.3528314,North Somerset
176,-3.1857315,53.3914673,Wirral District (B)
177,-3.8295813,50.4303598,South Hams District
178,-1.1548527,52.9721331,City of Nottingham (B)
179,-0.29856,51.5602586,Brent London Boro
180,-2.607937,51.481638,City of Bristol (B)
181,-2.0047063,52.5595497,Sandwell District (B)
182,-2.191375,53.6313101,Rochdale District (B)
183,-1.2250542,53.0185112,Broxtowe District (B)
184,-2.0142261,50.7197503,"Bournemouth, Christchurch and Poole"
185,-0.3044807,51.5209131,Ealing London Boro
186,-1.2294581,54.5799322,Middlesbrough (B)
187,-4.049894,51.0729145,North Devon District
188,-1.241893,53.1701423,North East Derbyshire District
189,-3.0355698,53.7848564,Blackpool (B)
190,-0.4362521,53.7405646,East Riding of Yorkshire
191,0.107145,51.5693841,Redbridge London Boro
192,-1.3529893,53.6083608,Wakefield District (B)
193,-5.537274,50.122348,Cornwall
194,-5.537274,50.122348,Cornwall
195,-1.3776338,53.5931834,Barnsley District (B)
196,1.3277739,52.6615411,Broadland District
197,1.5864106,52.7028184,Great Yarmouth District (B)
198,0.422459,52.768848,King's Lynn and West Norfolk District (B)
199,1.7107896,52.5810297,Great Yarmouth District (B)
200,1.0564868,51.2823502,Swale District (B)
201,-2.7679499,52.3891212,Shropshire
202,-0.7306812,52.4124585,North Northamptonshire
203,-0.2304784,51.2880999,Reigate and Banstead District (B)
204,-1.4670716,55.0761375,Northumberland
205,-2.012052,52.664208,South Staffordshire District
206,-0.8208653,52.4395204,North Northamptonshire
207,-0.3069377,51.5149058,Ealing London Boro
208,-0.733691,52.471129,North Northamptonshire
209,-0.8963064,52.2779507,West Northamptonshire
210,-0.9128424,52.2712711,West Northamptonshire
211,-1.160866,52.25204,West Northamptonshire
212,-0.9909613,52.1269349,West Northamptonshire
213,-0.9060943,52.3274902,West Northamptonshire
214,-0.7191257,52.4687696,North Northamptonshire
215,-0.6079779,52.2903415,North Northamptonshire
216,-0.828167,52.276098,West Northamptonshire
217,-0.2546602,51.4848018,Hounslow London Boro
218,1.1486564,51.8032131,Tendring District
219,0.0485869,51.4842709,Greenwich London Boro
220,-2.0233143,52.569974,Walsall District (B)
221,-0.1641525,50.8370726,The City of Brighton and Hove (B)
222,-0.3121018,53.4983156,West Lindsey District
223,-1.1297133,51.270279,Basingstoke and Deane District (B)
224,-1.1009339,51.2494787,Basingstoke and Deane District (B)
225,-1.1390141,51.247382,Basingstoke and Deane District (B)
226,-1.1281487,51.2726682,Basingstoke and Deane District (B)
227,-1.0869444,51.2584255,Basingstoke and Deane District (B)
228,-1.500185,51.001604,New Forest District
229,-1.1175124,51.2621578,Basingstoke and Deane District (B)
230,-0.8981396,51.5316413,South Oxfordshire District
231,-2.2224302,53.0769086,City of Stoke-on-Trent (B)
232,-1.0660884,54.5990588,Redcar and Cleveland (B)
233,-0.5855819,52.5630433,North Northamptonshire
234,-0.1351246,51.3259274,Croydon London Boro
235,-0.1638833,51.2365167,Reigate and Banstead District (B)
236,-0.3816427,51.8283881,St. Albans District (B)
237,-0.082253,51.648532,Barnet London Boro
238,0.041641,51.626946,Epping Forest District
239,-2.2377087,52.3913622,Wyre Forest District
240,0.0135492,51.4147162,Bromley London Boro
241,-1.9898749,53.8942994,Bradford District (B)
242,-1.0192549,50.9047681,Havant District (B)
243,-0.1859011,51.359872,Reigate and Banstead District (B)
244,-0.686787,51.415357,Windsor and Maidenhead (B)
245,-0.2630024,51.3553932,Epsom and Ewell District (B)
246,0.0025136,52.8168895,South Holland District
247,-1.2709837,50.9165499,Winchester District (B)
248,0.2793476,50.7778588,Eastbourne District (B)
249,1.3058354,51.1336802,Dover District
250,-0.3856381,50.815097,Worthing District (B)
251,-0.6788143,50.7886646,Arun District
252,-0.0080433,51.2546068,Tandridge District
253,-1.8267981,53.779903,Bradford District (B)
254,0.524463,50.8991964,Rother District
255,0.281253,53.3168265,East Lindsey District
256,-1.509893,51.412875,West Berkshire
257,-2.595253,53.37744,Warrington (B)
258,1.39384,51.22255,Dover District
259,-2.2311693,51.8714426,Gloucester District (B)
260,-0.3514427,51.5540175,Ealing London Boro
261,-0.3172389,51.5925331,Harrow London Boro
262,-1.5160616,55.1800143,Northumberland
263,-0.8176913,50.8359196,Chichester District
264,1.3514121,52.6281281,Broadland District
265,1.186915,51.084282,Folkestone and Hythe District
266,0.0195242,50.9273279,Lewes District
267,-0.04987,51.557614,Hackney London Boro
268,-1.0008453,50.7927815,Havant District (B)
269,-1.3198514,54.7630972,County Durham
270,-1.9017672,53.7328275,Calderdale District (B)
271,-0.1535284,51.6486627,Barnet London Boro
272,-3.0078506,53.6489068,Sefton District (B)
273,-2.1587809,53.3960057,Stockport District (B)
274,0.2102517,51.4461541,Dartford District (B)
275,-1.5019829,54.9776344,South Tyneside District (B)
276,-1.225502,52.978502,City of Nottingham (B)
277,-1.2102771,53.3739601,Rotherham District (B)
278,-1.6438218,54.9732975,Newcastle upon Tyne District (B)
279,-1.1296892,51.5883429,South Oxfordshire District
280,-2.0713633,51.9537395,Tewkesbury District (B)
281,-2.9883189,53.8488778,Blackpool (B)
282,-2.6401842,53.6534796,South Ribble District (B)
283,-0.5672195,52.3311494,North Northamptonshire
284,0.0031195,51.5881302,Waltham Forest London Boro
285,0.0736139,51.4812221,Greenwich London Boro
286,1.4413031,51.3564337,Thanet District
287,-1.2289105,52.631352,Blaby District
288,-1.0212295,52.0915592,West Northamptonshire
289,0.022524,51.573877,Redbridge London Boro
290,-2.264714,54.899878,Northumberland
291,-4.5465736,50.8355378,Cornwall
292,-0.0588564,51.2162692,Tandridge District
293,-0.6716549,50.7909845,Arun District
294,0.1463181,51.053044,Wealden District
295,-0.1385098,51.5524781,Camden London Boro
296,-1.6584651,53.6948742,Kirklees District (B)
297,0.002073,51.6184979,Waltham Forest London Boro
298,-0.4900854,51.4080788,Spelthorne District (B)
299,-1.8392195,54.8912813,County Durham
300,-0.3077499,51.3656612,Elmbridge District (B)
301,-0.173402,50.826803,The City of Brighton and Hove (B)
302,0.6411156,51.9374467,Braintree District
303,-0.7924155,51.514964,Windsor and Maidenhead (B)
304,-1.1200139,53.5278013,Doncaster District (B)
305,-0.5746402,51.4299365,Windsor and Maidenhead (B)
306,-1.8804723,50.7375857,"Bournemouth, Christchurch and Poole"
307,-1.7101402,51.6350523,Swindon (B)
308,-5.535058,50.119806,Cornwall
309,-3.069466,52.78026,Shropshire
310,-0.460153,52.141145,Bedford (B)
311,-1.173801,50.6352511,Isle of Wight
312,1.381257,51.205275,Dover District
313,-1.13503,51.525759,South Oxfordshire District
314,-5.2884548,50.2183039,Cornwall
315,-0.473419,51.539097,Buckinghamshire
316,-1.1348881,53.0017357,Gedling District (B)
317,-0.6595752,51.3957805,Windsor and Maidenhead (B)
318,0.2925709,51.6175024,Brentwood District (B)
319,-0.7590032,51.5803998,Buckinghamshire
320,-0.252992,51.41553,Merton London Boro
321,-0.7374027,51.1120187,Waverley District (B)
322,-0.2282955,51.3145628,Reigate and Banstead District (B)
323,-0.2667532,51.5339672,Brent London Boro
324,-0.3615414,53.7367529,City of Kingston upon Hull (B)
325,0.8691299,51.9736684,Babergh District
326,-1.5656948,54.6323013,County Durham
327,-1.2125868,50.817975,Fareham District (B)
328,-2.1580823,52.8125656,South Staffordshire District
329,-1.7419136,54.9071634,County Durham
330,-2.0013873,52.5682559,Walsall District (B)
331,-0.1030474,51.3648186,Croydon London Boro
332,-0.172318,51.575563,Barnet London Boro
333,-1.8370284,53.7675678,Bradford District (B)
334,1.4425767,52.4500907,East Suffolk District
335,1.4463961,52.4663757,East Suffolk District
336,-0.209342,51.3606283,Epsom and Ewell District (B)
337,1.696649,52.477241,East Suffolk District
338,-5.1531644,50.3456924,Cornwall
339,-1.1504608,52.5536413,Blaby District
340,-0.1653919,51.4406572,Wandsworth London Boro
341,-1.4877864,54.9706205,South Tyneside District (B)
342,-1.746084,54.65271,County Durham
343,-0.144241,51.597369,Haringey London Boro
344,-0.3691948,51.6138117,Harrow London Boro
345,-0.3108604,51.5206814,Ealing London Boro
346,-3.0667301,50.7260292,East Devon District
347,-5.2865309,50.220198,Cornwall
348,-2.9486097,50.8891452,South Somerset District
349,0.0314189,51.4074384,Bromley London Boro
350,1.1742384,51.0856027,Folkestone and Hythe District
351,1.1741383,51.0856018,Folkestone and Hythe District
352,1.1441422,51.0886888,Folkestone and Hythe District
353,1.1441224,51.0886084,Folkestone and Hythe District
354,0.7048236,52.2367099,Babergh District
355,-1.3109181,52.9745691,Erewash District (B)
356,-0.87495,51.028282,Chichester District
357,-0.363805,53.756937,City of Kingston upon Hull (B)
358,-2.4687653,53.5843087,Bolton District (B)
359,0.8819056,52.330486,Babergh District
360,-1.5378885,54.6828569,County Durham
361,-1.025889,50.868319,Havant District (B)
362,0.4899762,52.938076,King's Lynn and West Norfolk District (B)
363,-1.216656,51.7575108,Oxford District (B)
364,-2.2344334,51.842773,Gloucester District (B)
365,-0.6800847,53.6033617,North Lincolnshire (B)
366,0.2063249,51.9880264,East Hertfordshire District
367,-2.1431815,52.4538847,Dudley District (B)
368,-1.9127189,52.5083115,Birmingham District (B)
369,-2.8417678,53.3407148,Liverpool District (B)
370,-2.9632442,53.4292886,Liverpool District (B)
371,-1.2173537,54.6770145,Hartlepool (B)
372,-4.1228126,50.37813,City of Plymouth (B)
373,-2.5972972,53.7448511,South Ribble District (B)
374,-3.517911,50.4772948,Torbay (B)
375,0.2818236,51.4482179,Dartford District (B)
376,-1.156771,50.657683,Isle of Wight
377,-0.222376,51.76057,St. Albans District (B)
378,-0.79764,50.728355,Chichester District
379,-1.1615446,52.5875627,Blaby District
380,-0.1192687,52.4508627,Huntingdonshire District
381,-0.3420968,51.7540587,St. Albans District (B)
382,-2.457061,51.6913012,South Gloucestershire
383,-2.0271634,52.5227511,Sandwell District (B)
384,-1.6138666,52.6221826,North Warwickshire District (B)
385,-1.6145991,52.5993059,North Warwickshire District (B)
386,-1.6155781,52.6224039,North Warwickshire District (B)
387,-1.614599,52.599261,North Warwickshire District (B)
388,-1.614599,52.599261,North Warwickshire District (B)
389,-1.5461101,52.5833941,North Warwickshire District (B)
390,-1.621252,52.6188173,North Warwickshire District (B)
391,-1.6068811,52.6022023,North Warwickshire District (B)
392,-1.6146964,52.610094,North Warwickshire District (B)
393,-5.4157693,50.1827659,Cornwall
394,-2.6497913,50.9299043,South Somerset District
395,-0.862709,51.4851031,Wokingham (B)
396,-0.2039316,51.3920048,Merton London Boro
397,-1.7655576,53.8059001,Bradford District (B)
398,-2.4838434,51.5329638,South Gloucestershire
399,0.0482095,52.278517,South Cambridgeshire District
400,-0.8815243,51.5054528,South Oxfordshire District
401,-3.0466814,53.8787422,Blackpool (B)
402,-1.751057,54.729188,County Durham
403,-0.266042,52.2270127,Huntingdonshire District
404,0.0852899,52.5420226,Fenland District
405,-4.8011061,50.3373167,Cornwall
406,-2.6545705,51.2023492,Mendip District
407,-2.4928004,53.0708654,Cheshire East (B)
408,-2.9688224,50.716749,East Devon District
409,-0.9799327,50.7844728,Havant District (B)
410,-1.4974254,53.363483,Sheffield District (B)
411,-1.5950813,51.8600953,West Oxfordshire District
412,-1.3444708,52.0542039,West Northamptonshire
413,-0.5100878,50.8171365,Arun District
414,-3.180401,53.375235,Wirral District (B)
415,-3.2095589,54.132945,Barrow-in-Furness District (B)
416,-0.3052379,51.5859112,Brent London Boro
417,-1.5141846,50.9442532,New Forest District
418,-1.335007,54.8420897,County Durham
419,-0.2688358,51.5923039,Brent London Boro
420,-0.7314743,51.7726988,Buckinghamshire
421,-0.3788744,50.8122593,Worthing District (B)
422,-0.8921035,51.5088801,South Oxfordshire District
423,0.3451847,51.2976421,Tonbridge and Malling District (B)
424,-0.0196593,51.572555,Waltham Forest London Boro
425,-0.1155241,51.3348852,Croydon London Boro
426,-0.4909085,51.3931172,Spelthorne District (B)
427,-1.222586,52.762627,Charnwood District (B)
428,-1.5224378,54.7686925,County Durham
429,0.18847,51.581007,Havering London Boro
430,-2.9694021,50.7629479,East Devon District
431,-0.813505,51.106943,Waverley District (B)
432,-0.813505,51.106943,Waverley District (B)
433,-0.9733854,54.5848724,Redcar and Cleveland (B)
434,-1.312199,52.575039,Hinckley and Bosworth District (B)
435,-3.5586635,50.4295031,Torbay (B)
436,-3.0911789,51.0130229,Somerset West and Taunton District
437,-0.095543,51.347628,Croydon London Boro
438,-0.2394868,52.5865174,City of Peterborough (B)
439,-2.152427,52.591239,City of Wolverhampton District (B)
440,-1.0869888,52.9798009,Gedling District (B)
441,-1.7694631,51.3389078,Wiltshire
442,-1.0869888,52.9798009,Gedling District (B)
443,-0.0782,51.453181,Southwark London Boro
444,-0.1481437,51.3544071,Croydon London Boro
445,-0.6428361,50.8337114,Arun District
446,-1.6124721,55.0032054,Newcastle upon Tyne District (B)
447,-1.601024,55.0013223,Newcastle upon Tyne District (B)
448,-1.39896,54.872909,Sunderland District (B)
449,-1.274554,51.42098,West Berkshire
450,-0.2543761,51.3877372,Merton London Boro
451,-2.9518453,50.874209,South Somerset District
452,1.1144561,51.3680693,Thanet District
453,1.1300702,51.3601963,Thanet District
454,0.8970278,51.1673937,Ashford District (B)
455,-1.5463625,53.6624171,Wakefield District (B)
456,-1.3290203,54.5598475,Stockton-on-Tees (B)
457,-0.340769,51.372346,Elmbridge District (B)
458,-3.9242577,50.3879627,South Hams District
459,-0.0895716,51.3479269,Croydon London Boro
460,-0.000565,51.444895,Lewisham London Boro
461,-4.1276422,50.3766745,City of Plymouth (B)
462,-0.6383566,51.6004001,Buckinghamshire
463,1.3621629,51.3808169,Thanet District
464,-0.3436821,51.5889598,Harrow London Boro
465,-0.183074,51.619687,Barnet London Boro
466,-0.1713631,51.3986606,Merton London Boro
467,0.8799525,51.3101401,Swale District (B)
468,1.1363621,51.3679612,Thanet District
469,-4.100872,50.577759,West Devon District (B)
470,-1.3387529,52.0562488,West Northamptonshire
471,-0.283421,51.619765,Barnet London Boro
472,-1.4473919,55.0437444,North Tyneside District (B)
473,-0.278958,51.122416,Mole Valley District
474,-0.094327,51.0130595,Mid Sussex District
475,-0.1190084,50.9964977,Mid Sussex District
476,-3.1749885,54.1498344,Barrow-in-Furness District (B)
477,-0.3085488,51.3080843,Mole Valley District
478,-0.792437,51.348243,Bracknell Forest (B)
479,-0.1858277,51.3733746,Merton London Boro
480,-0.640014,51.10693,Waverley District (B)
481,-2.8569296,51.4396553,North Somerset
482,-1.9204989,50.7246592,"Bournemouth, Christchurch and Poole"
483,-0.837178,51.497794,Wokingham (B)
484,-1.3844146,50.9859606,Eastleigh District (B)
485,-0.8354723,51.2853023,Hart District
486,-0.7357472,51.6195987,Buckinghamshire
487,-1.6570671,50.7357915,New Forest District
488,-2.466413,53.726033,Blackburn with Darwen (B)
489,-2.400562,51.380466,Bath and North East Somerset
490,-0.101706,51.4024584,Croydon London Boro
491,-0.101489,51.403543,Croydon London Boro
492,-1.303318,53.500247,Doncaster District (B)
493,-1.1272747,52.9676639,City of Nottingham (B)
494,-0.686605,53.195753,North Kesteven District
495,0.5126718,51.8729303,Braintree District
496,1.1585422,51.1105418,Folkestone and Hythe District
497,-1.786392,50.720337,"Bournemouth, Christchurch and Poole"
498,-3.0148646,53.7451249,Blackpool (B)
499,-0.9738379,54.5791784,Redcar and Cleveland (B)
500,-3.0033732,51.1268269,Sedgemoor District
501,-0.6837193,51.6314987,Buckinghamshire
502,-1.0047634,51.7990487,Buckinghamshire
503,1.1696386,51.0759824,Folkestone and Hythe District
504,-1.2893277,50.9189632,Eastleigh District (B)
505,0.0463727,51.5216655,Newham London Boro
506,-1.9460867,52.4750506,Birmingham District (B)
507,-2.2360227,52.3855376,Wyre Forest District
508,-3.5239894,50.4796077,Torbay (B)
509,1.2917513,52.373682,East Suffolk District
510,-0.0526065,51.5549508,Hackney London Boro
511,-1.57616,55.136737,Northumberland
512,-0.1685666,51.207678,Reigate and Banstead District (B)
513,-2.0116967,54.9571033,Northumberland
514,-0.3124139,51.5110191,Ealing London Boro
515,-1.0742864,53.7798613,East Riding of Yorkshire
516,-2.9597149,51.2542254,Sedgemoor District
517,-0.3260051,51.0714577,Mole Valley District
518,-1.923984,52.649091,Walsall District (B)
519,1.4011025,51.3844954,Thanet District
520,-0.2536129,51.3935365,Merton London Boro
521,-0.6180858,51.5475334,Buckinghamshire
522,-0.3180441,51.2579073,Mole Valley District
523,0.9066375,51.4078589,Swale District (B)
524,-2.400562,51.380466,Bath and North East Somerset
525,1.0709343,51.2840588,Swale District (B)
526,-0.1809879,51.4583334,Wandsworth London Boro
527,-4.4669306,50.4574968,Cornwall
528,-0.1833624,51.4577351,Wandsworth London Boro
529,-2.400562,51.380466,Bath and North East Somerset
530,-2.019506,51.943307,Tewkesbury District (B)
531,-2.916321,54.9364021,Allerdale District (B)
532,-1.3471313,54.5538533,Stockton-on-Tees (B)
533,-0.168567,51.207678,Reigate and Banstead District (B)
534,1.2912989,51.164863,Dover District
535,-1.152791,50.805623,Gosport District (B)
536,-3.3804835,54.8784454,Allerdale District (B)
537,0.7097239,52.2568215,Babergh District
538,-0.071308,51.641797,Waltham Forest London Boro
539,-0.162074,51.1762,Reigate and Banstead District (B)
540,-1.5935635,50.7260599,New Forest District
541,0.374576,51.4328224,Gravesham District (B)
542,0.4546659,51.4144353,Gravesham District (B)
543,1.3925383,51.1879194,Dover District
544,0.7123191,52.1643946,Babergh District
545,-2.9738065,51.354704,North Somerset
546,-4.4820051,50.4440168,Cornwall
547,-0.2275191,54.0806473,East Riding of Yorkshire
548,-2.3908175,51.3865433,Bath and North East Somerset
549,-1.5487108,53.6593244,Wakefield District (B)
550,-1.2199129,54.5449849,Middlesbrough (B)
551,-2.3977883,51.3803496,Bath and North East Somerset
552,-0.2604242,51.3472436,Epsom and Ewell District (B)
553,-1.7992099,54.8609648,County Durham
554,-0.6192196,51.6510346,Buckinghamshire
555,-2.953917,53.382609,Liverpool District (B)
556,1.3015483,51.3780356,Thanet District
557,-1.7488162,52.5172023,North Warwickshire District (B)
558,-3.0006315,53.6323397,Sefton District (B)
559,-2.501272,53.728349,Blackburn with Darwen (B)
560,-0.1678903,50.8366457,The City of Brighton and Hove (B)
561,1.3292067,51.3808683,Thanet District
562,-3.597452,50.523519,Teignbridge District
563,-2.036388,52.4675325,Dudley District (B)
564,-0.2033031,51.5352966,Brent London Boro
565,-2.400562,51.380466,Bath and North East Somerset
566,-0.910796,52.2453321,West Northamptonshire
567,1.1198483,52.0587221,Babergh District
568,-0.596295,51.684689,Buckinghamshire
569,-2.400562,51.380466,Bath and North East Somerset
570,-1.9733412,52.5913496,Walsall District (B)
571,1.3333451,51.3802558,Thanet District
572,1.335067,51.385188,Thanet District
573,-1.5098564,53.812894,Leeds District (B)
574,-3.0203192,53.6391306,Sefton District (B)
575,-3.4173112,50.8218656,Mid Devon District
576,-2.9884291,53.6582832,Sefton District (B)
577,-2.9949666,53.623643,Sefton District (B)
578,-1.5946304,53.7986207,Leeds District (B)
579,-2.996499,53.6552452,Sefton District (B)
580,-2.9152676,53.4171054,Liverpool District (B)
581,-2.9961948,53.6550307,Sefton District (B)
582,-3.0639374,53.402686,Wirral District (B)
583,-2.2568541,53.0328531,Newcastle-under-Lyme District (B)
584,-1.3221237,53.5205155,Barnsley District (B)
585,-1.974839,52.606222,Walsall District (B)
586,-1.0097025,53.5758901,Doncaster District (B)
587,-2.0798555,53.4498451,Tameside District (B)
588,-1.4824492,53.4125778,Sheffield District (B)
589,-2.8293794,53.417679,Knowsley District (B)
590,-2.9265254,53.4214051,Liverpool District (B)
591,-2.8394792,53.387307,Liverpool District (B)
592,-3.0118777,53.6440291,Sefton District (B)
593,-2.696603,53.549678,Wigan District (B)
594,-2.8467951,53.3687169,Knowsley District (B)
595,-2.7293963,53.6958685,South Ribble District (B)
596,-3.0220002,53.6368655,Sefton District (B)
597,-2.7428296,53.6682477,South Ribble District (B)
598,-2.9900707,53.6515778,Sefton District (B)
599,-2.9869771,53.6533595,Sefton District (B)
600,-2.8650162,53.5868092,Sefton District (B)
601,-1.9139479,52.6379576,Lichfield District
602,-2.1899542,53.5103297,Manchester District (B)
603,-1.178848,54.554608,Middlesbrough (B)
604,-1.753758,53.8112783,Bradford District (B)
605,-1.5001314,53.8107687,Leeds District (B)
606,-2.1202929,53.0080411,City of Stoke-on-Trent (B)
607,-2.1632254,53.0469218,City of Stoke-on-Trent (B)
608,-0.6809323,52.4906465,North Northamptonshire
609,-3.0925088,53.3822388,Wirral District (B)
610,-2.7643434,53.3670297,Halton (B)
611,-1.3531289,54.6389379,Stockton-on-Tees (B)
612,-1.8751904,53.7137841,Calderdale District (B)
613,-1.4076959,53.3490155,Sheffield District (B)
614,-1.9646955,52.6041921,Walsall District (B)
615,-2.0173136,55.5523474,Northumberland
616,-1.1032189,52.6385046,City of Leicester (B)
617,-0.091263,51.36183,Croydon London Boro
618,0.8077147,51.4304603,Swale District (B)
619,-2.194363,53.5543656,Rochdale District (B)
620,-2.1472352,52.5881355,City of Wolverhampton District (B)
621,-0.158087,51.228854,Reigate and Banstead District (B)
622,-1.7385827,53.6351717,Kirklees District (B)
623,-1.4365283,54.9747608,South Tyneside District (B)
624,-0.203276,51.837927,North Hertfordshire District
625,-1.4011619,51.8079925,West Oxfordshire District
626,-2.0647367,52.5361943,Sandwell District (B)
627,-2.6669922,53.5440068,Wigan District (B)
628,-1.4583162,53.5999746,Barnsley District (B)
629,-0.3403554,51.4780167,Hounslow London Boro
630,0.547501,50.8532748,Hastings District (B)
631,-1.134904,50.794377,Gosport District (B)
632,-2.474714,50.599968,Dorset
633,-3.6106208,50.5232832,Teignbridge District
634,-3.532595,50.472021,Torbay (B)
635,-3.0508011,53.8276704,Blackpool (B)
636,0.5227033,51.6164658,Basildon District (B)
637,-0.2047057,54.0871406,East Riding of Yorkshire
638,-0.6525317,50.7928875,Arun District
639,-1.3919421,54.8981167,Sunderland District (B)
640,-1.594131,50.781176,New Forest District
641,-0.1811826,51.3576174,Reigate and Banstead District (B)
642,0.146108,52.179598,Cambridge District (B)
643,-1.6947603,55.4077431,Northumberland
644,0.1602001,51.5630462,Havering London Boro
645,-0.7843538,51.4203572,Bracknell Forest (B)
646,-1.3104761,53.4854293,Rotherham District (B)
647,0.6847873,51.5422066,Southend-on-Sea (B)
648,-0.1269649,51.4310029,Lambeth London Boro
649,-0.858224,51.7363596,Buckinghamshire
650,-2.2779153,53.7962969,Burnley District (B)
651,-0.1497993,50.844832,The City of Brighton and Hove (B)
652,-0.9614524,51.3936004,Wokingham (B)
653,-0.520342,51.9042516,Central Bedfordshire
654,-0.719034,52.399888,North Northamptonshire
655,-1.563711,53.660823,Wakefield District (B)
656,0.0417181,51.4023582,Bromley London Boro
657,-2.0225469,52.7151147,Cannock Chase District
658,-1.2944544,50.691449,Isle of Wight
659,-0.8308024,51.408371,Wokingham (B)
660,0.086184,52.535056,Fenland District
661,0.087982,52.533173,Fenland District
662,-2.0196394,54.9773841,Northumberland
663,-1.4541,53.567247,Barnsley District (B)
664,-2.1426079,53.6245861,Rochdale District (B)
665,0.341693,51.903446,Braintree District
666,-0.2113761,51.9150318,Stevenage District (B)
667,-2.7760313,53.3709273,Halton (B)
668,-2.8372459,54.079353,Lancaster District (B)
669,-1.462935,53.362851,Sheffield District (B)
670,-2.953917,53.382609,Liverpool District (B)
671,-2.21749,53.0592632,City of Stoke-on-Trent (B)
672,-3.5170113,50.7176739,Exeter District (B)
673,-2.5010938,53.5794767,Bolton District (B)
674,-1.3416117,50.8140393,New Forest District
675,-1.2836646,53.0070665,Broxtowe District (B)
676,-1.5323389,54.9077332,Sunderland District (B)
677,-1.7704567,52.7139476,Lichfield District
678,1.690918,52.452495,East Suffolk District
679,-0.7258927,51.2863552,Surrey Heath District (B)
680,-1.4215704,51.5952428,Vale of White Horse District
681,-1.680341,52.611014,Tamworth District (B)
682,0.237144,51.571989,Havering London Boro
683,-0.017072,51.146609,Tandridge District
684,-1.8508277,53.7907208,Bradford District (B)
685,-1.1173837,53.9375058,York (B)
686,-0.0911545,51.2835461,Tandridge District
687,-1.7979496,50.7420313,"Bournemouth, Christchurch and Poole"
688,-1.777511,53.8225506,Bradford District (B)
689,-0.1756826,51.3253072,Reigate and Banstead District (B)
690,-0.1506772,51.4023358,Merton London Boro
691,-2.390697,50.676056,Dorset
692,-0.1894827,51.1075793,Crawley District (B)
693,-0.4260594,51.5736918,Harrow London Boro
694,-1.078079,54.0076881,York (B)
695,-0.2917692,51.5139305,Ealing London Boro
696,-0.2010581,51.5818108,Barnet London Boro
697,-1.7220617,54.6321677,County Durham
698,-2.0057534,52.8808646,East Staffordshire District (B)
699,-5.0447661,50.4166263,Cornwall
700,-5.1060063,50.410778,Cornwall
701,0.0057092,51.2442728,Tandridge District
702,-3.3285946,50.6337028,East Devon District
703,-0.19653,54.099027,East Riding of Yorkshire
704,-2.5317566,55.1647273,Northumberland
705,-0.355324,53.765696,City of Kingston upon Hull (B)
706,-0.3497612,53.7618957,City of Kingston upon Hull (B)
707,-0.418224,53.725758,City of Kingston upon Hull (B)
708,0.2278976,51.6113837,Havering London Boro
709,-1.237297,54.55769,Middlesbrough (B)
710,-1.8093053,52.4397945,Solihull District (B)
711,-0.4464922,50.8080693,Arun District
712,-0.263173,51.9509456,North Hertfordshire District
713,1.148551,51.789601,Tendring District
714,0.077862,51.408674,Bromley London Boro
715,-2.0938746,52.5458658,Dudley District (B)
716,-0.2046996,51.3551887,Epsom and Ewell District (B)
717,-0.2690844,51.949479,North Hertfordshire District
718,-0.5527414,51.8033732,Dacorum District (B)
719,-0.5301738,51.8840449,Central Bedfordshire
720,-1.7688722,53.7415074,Bradford District (B)
721,-1.8192,52.584988,Birmingham District (B)
722,-0.1533652,50.8562129,The City of Brighton and Hove (B)
723,-0.7039502,52.1517507,Milton Keynes (B)
724,0.2112134,51.5791132,Havering London Boro
725,0.2082148,51.5700022,Havering London Boro
726,-0.9986387,51.4494219,Reading (B)
727,-1.3416117,50.8140393,New Forest District
728,-2.9573136,50.8677885,South Somerset District
729,0.690354,51.609378,Rochford District
730,-1.5501117,53.9892411,Leeds District (B)
731,-0.429641,53.837515,East Riding of Yorkshire
732,-0.9426315,51.4512232,Reading (B)
733,-0.98345,51.451027,Reading (B)
734,-1.3812147,53.6365403,Wakefield District (B)
735,-2.2091211,53.458641,Manchester District (B)
736,-0.9526231,51.4491638,Reading (B)
737,0.171375,51.118602,Tunbridge Wells District (B)
738,-3.3945619,50.622248,East Devon District
739,-0.2254924,51.4166437,Merton London Boro
740,-1.473863,54.856388,Sunderland District (B)
741,-1.4569217,53.7177435,Wakefield District (B)
742,-1.8149064,50.7249644,"Bournemouth, Christchurch and Poole"
743,-1.8932572,50.7613835,"Bournemouth, Christchurch and Poole"
744,-3.756902,50.514826,Teignbridge District
745,-0.1905753,51.2411591,Reigate and Banstead District (B)
746,-3.030554,53.363624,Wirral District (B)
747,-1.5208884,51.4157309,West Berkshire
748,-0.3261116,51.0725368,Mole Valley District
749,0.7581415,51.2633232,Swale District (B)
750,0.0256635,51.4067017,Bromley London Boro
751,-0.0821823,51.0143986,Mid Sussex District
752,-0.8561713,51.3755983,Wokingham (B)
753,-0.6592858,51.522636,Buckinghamshire
754,-2.457061,51.6913012,South Gloucestershire
755,-0.077866,51.589577,Haringey London Boro
756,-4.479526,50.82628,Cornwall
757,-0.8299478,51.502405,Wokingham (B)
758,0.1144373,51.5632727,Redbridge London Boro
759,-0.369641,51.42213,Richmond upon Thames London Boro
760,0.5940698,51.1408079,Tunbridge Wells District (B)
761,-1.2423157,51.8483191,West Oxfordshire District
762,-3.770735,50.282167,South Hams District
763,-0.8606374,51.3733758,Wokingham (B)
764,0.488162,51.7114515,Brentwood District (B)
765,-0.4761667,52.2530648,Bedford (B)
766,-2.2428713,52.1876927,County of Herefordshire
767,-1.6134291,52.8041947,East Staffordshire District (B)
768,-0.7841525,53.9347415,East Riding of Yorkshire
769,1.304481,52.633088,Norwich District (B)
770,-0.4449421,50.8077339,Arun District
771,-1.1871276,51.6593154,South Oxfordshire District
772,-2.9849652,53.650399,Sefton District (B)
773,-1.2195978,54.56231,Middlesbrough (B)
774,-2.0783048,51.883404,Cheltenham District (B)
775,-0.331844,51.636014,Hertsmere District (B)
776,0.72907,51.548047,Southend-on-Sea (B)
777,-0.38026,51.6527117,Hertsmere District (B)
778,-0.283788,51.658661,Hertsmere District (B)
779,-2.7472033,52.2246217,County of Herefordshire
780,1.752248,52.4880008,East Suffolk District
781,1.2968802,52.6415852,Norwich District (B)
782,-1.5224378,54.7686925,County Durham
783,-0.2987826,51.5082683,Ealing London Boro
784,0.008814,53.36089,East Lindsey District
785,0.289537,51.225493,Tonbridge and Malling District (B)
786,-5.3850781,50.2232311,Cornwall
787,-0.5180188,51.288891,Guildford District (B)
788,0.7344512,51.549747,Southend-on-Sea (B)
789,-4.7668967,50.4428322,Cornwall
790,-3.516873,50.458521,Torbay (B)
791,-1.481026,53.354257,Sheffield District (B)
792,-0.8224033,51.3611029,Bracknell Forest (B)
793,-1.080679,52.575905,Oadby and Wigston District (B)
794,-0.3098253,51.7511173,St. Albans District (B)
795,-3.021561,51.131503,Sedgemoor District
796,-2.9939192,53.6525096,Sefton District (B)
797,-0.5825766,51.2355214,Guildford District (B)
798,-3.397314,54.8652933,Allerdale District (B)
799,-0.1064563,51.3211688,Croydon London Boro
800,-2.3622496,53.7578545,Burnley District (B)
801,0.520697,52.416389,King's Lynn and West Norfolk District (B)
802,0.692483,52.291945,Babergh District
803,-1.6025652,53.7367574,Leeds District (B)
804,-2.0792672,51.9018436,Cheltenham District (B)
805,-2.08707,52.601887,City of Wolverhampton District (B)
806,-0.49227,52.115895,Bedford (B)
807,-0.4602266,52.1463875,Bedford (B)
808,-0.7487008,51.5508781,Windsor and Maidenhead (B)
809,1.4399279,51.3554147,Thanet District
810,0.1707111,52.665432,Fenland District
811,-2.3562117,51.388549,Bath and North East Somerset
812,-1.0617747,52.9661183,Gedling District (B)
813,-0.221385,51.448309,Wandsworth London Boro
814,-1.7529363,52.4683056,Solihull District (B)
815,-0.406334,51.882594,Luton (B)
816,-0.4077774,51.8827312,Luton (B)
817,-0.4163939,51.8686585,Luton (B)
818,-0.3566138,51.2971952,Mole Valley District
819,-0.383848,51.618088,Three Rivers District
820,-0.3829006,51.6435043,Watford District (B)
821,-0.5199338,51.655742,Three Rivers District
822,-0.4955461,51.6461165,Three Rivers District
823,-1.896345,52.2714452,Bromsgrove District
824,-0.6241805,51.7106004,Buckinghamshire
825,-1.5043269,52.9165114,City of Derby (B)
826,-2.122091,51.9041,Cheltenham District (B)
827,-1.3132507,54.5891016,Stockton-on-Tees (B)
828,-0.9614524,51.3936004,Wokingham (B)
829,-1.5696758,55.1416382,Northumberland
830,-0.3067025,51.7245999,St. Albans District (B)
831,0.7410318,51.5346727,Southend-on-Sea (B)
832,-1.1924464,54.6614205,Hartlepool (B)
833,-2.3748681,52.7779002,Telford and Wrekin (B)
834,-0.005301,51.1569762,Tandridge District
835,-2.928983,50.931676,South Somerset District
836,-0.9737836,54.581955,Redcar and Cleveland (B)
837,-3.0244479,53.6362511,Sefton District (B)
838,-0.1684475,50.8358361,The City of Brighton and Hove (B)
839,-2.7940546,54.0270421,Lancaster District (B)
840,-2.8014227,52.7192571,Shropshire
841,-1.4160529,54.8946044,Sunderland District (B)
842,-0.5619634,51.6039672,Buckinghamshire
843,-1.515957,53.825563,Leeds District (B)
844,0.4806332,52.080264,Braintree District
845,-0.302807,51.383349,Elmbridge District (B)
846,-0.289201,51.380769,Elmbridge District (B)
847,-0.289201,51.380769,Elmbridge District (B)
848,-0.7833861,51.4199695,Bracknell Forest (B)
849,-0.1845933,52.6063948,City of Peterborough (B)
850,-3.3616195,50.6935587,East Devon District
851,-0.4507271,51.3660834,Elmbridge District (B)
852,-2.7552422,51.2556257,Mendip District
853,-0.299714,51.727346,St. Albans District (B)
854,1.1616263,52.0634141,Ipswich District (B)
855,1.3005005,52.6189911,Norwich District (B)
856,-0.1424611,51.4252694,Wandsworth London Boro
857,-0.287308,51.718812,St. Albans District (B)
858,-1.5166451,53.3292921,Sheffield District (B)
859,0.00205,51.568724,Waltham Forest London Boro
860,0.0447883,51.3970529,Bromley London Boro
861,-0.3672262,51.4167489,Richmond upon Thames London Boro
862,-2.5581229,51.5830798,South Gloucestershire
863,-2.5431784,51.5155662,South Gloucestershire
864,1.10394,51.369383,Thanet District
865,-2.3293137,51.2290144,Mendip District
866,1.4449057,52.3805515,East Suffolk District
867,-4.4475151,50.3622035,Cornwall
868,-0.5415025,50.8048621,Arun District
869,0.2776804,50.77245,Eastbourne District (B)
870,-0.3762016,50.816214,Worthing District (B)
871,0.1642378,51.0520749,Wealden District
872,0.157905,51.068099,Wealden District
873,-0.3879047,50.8132038,Worthing District (B)
874,-1.5721379,54.8536108,County Durham
875,-1.2061775,53.0398623,Gedling District (B)
876,0.9354583,50.9836979,Folkestone and Hythe District
877,1.1235451,51.8420274,Tendring District
878,-2.525958,50.706837,Dorset
879,-0.3314906,51.5777447,Harrow London Boro
880,-4.1462236,50.4190651,City of Plymouth (B)
881,-0.494093,53.738141,East Riding of Yorkshire
882,-1.5946565,50.9002307,New Forest District
883,0.2752041,52.1009106,South Cambridgeshire District
884,-0.3447755,51.5905873,Harrow London Boro
885,0.0975496,51.4316513,Bexley London Boro
886,0.011968,51.573726,Waltham Forest London Boro
887,-0.2533784,51.3922814,Merton London Boro
888,0.4147489,50.844469,Rother District
889,-1.812043,52.567366,Birmingham District (B)
890,-1.534952,55.212374,Northumberland
891,-0.4383268,54.2928188,Scarborough District (B)
892,-1.4423977,53.5052,Barnsley District (B)
893,-1.8221559,52.5401604,Birmingham District (B)
894,-2.7396883,52.2234553,County of Herefordshire
895,-2.7524794,52.226692,County of Herefordshire
896,-1.0893111,53.5114743,Doncaster District (B)
897,-1.6470293,54.9718608,Newcastle upon Tyne District (B)
898,-0.3583639,50.8197326,Worthing District (B)
899,1.256001,52.499233,East Suffolk District
900,1.340067,52.6477943,Norwich District (B)
901,-2.461749,53.378398,Warrington (B)
902,-1.5416488,51.7265348,West Oxfordshire District
903,-1.476609,51.789561,West Oxfordshire District
904,-0.1351205,51.3235532,Croydon London Boro
905,-0.457272,52.1375792,Bedford (B)
906,-1.70534,54.98624,Newcastle upon Tyne District (B)
907,-1.67328,54.97939,Newcastle upon Tyne District (B)
908,-1.709448,55.4162,Northumberland
909,-1.578082,55.080814,Northumberland
910,-1.648028,54.981766,Newcastle upon Tyne District (B)
911,1.284038,52.6154289,Norwich District (B)
912,-0.272265,51.411904,Richmond upon Thames London Boro
913,-0.1957056,50.8276271,The City of Brighton and Hove (B)
914,-1.9077411,52.6764708,Lichfield District
915,-0.5504925,52.0616169,Central Bedfordshire
916,-1.9335514,52.4744509,Birmingham District (B)
917,-2.1768067,52.6007526,City of Wolverhampton District (B)
918,-1.4405917,55.0432191,North Tyneside District (B)
919,-1.446887,55.0451799,North Tyneside District (B)
920,-1.8319641,54.8552002,County Durham
921,-0.7976104,51.369491,Bracknell Forest (B)
922,-2.6887345,52.049588,County of Herefordshire
923,-1.7136104,53.7122399,Kirklees District (B)
924,-0.6864386,50.7808638,Arun District
925,-2.0186583,52.5544601,Sandwell District (B)
926,-2.0435687,52.5833378,Walsall District (B)
927,-0.559938,51.237272,Guildford District (B)
928,-3.756902,50.514826,Teignbridge District
929,-0.4279817,51.3523907,Elmbridge District (B)
930,-4.1249658,51.2098278,North Devon District
931,-0.4283227,51.3529168,Elmbridge District (B)
932,-2.2596681,54.8983792,Northumberland
933,-0.4137354,51.1937767,Guildford District (B)
934,-2.331536,51.9012949,Tewkesbury District (B)
935,-3.483566,54.70538,Allerdale District (B)
936,-0.7448598,52.0082096,Milton Keynes (B)
937,-0.9465,52.949014,Rushcliffe District (B)
938,0.4064981,52.253853,East Cambridgeshire District
939,-1.1532299,52.9735167,City of Nottingham (B)
940,-2.9573136,50.8677885,South Somerset District
941,0.724589,51.53752,Southend-on-Sea (B)
942,0.050214,51.4906813,Greenwich London Boro
943,-2.0119684,53.9429051,Bradford District (B)
944,-1.791349,53.690847,Calderdale District (B)
945,-1.289558,50.871103,Fareham District (B)
946,-0.1912119,51.4718219,Wandsworth London Boro
947,0.478828,50.840103,Rother District
948,-0.2537348,51.3374033,Epsom and Ewell District (B)
949,-0.799847,51.204057,Waverley District (B)
950,-5.0443305,50.2654935,Cornwall
951,-1.045657,54.528826,Redcar and Cleveland (B)
952,1.038988,51.3600328,Swale District (B)
953,-0.359742,51.2266919,Mole Valley District
954,-0.3369497,51.2232858,Mole Valley District
955,0.0359381,51.0617114,Wealden District
956,-0.0063076,50.8713017,Lewes District
957,-0.4309506,51.8573082,Central Bedfordshire
958,-0.6067143,53.7523484,East Riding of Yorkshire
959,-2.614207,51.476642,City of Bristol (B)
960,-1.3735052,52.7209697,Hinckley and Bosworth District (B)
961,-0.1033804,51.3212809,Croydon London Boro
962,-0.1744403,51.6140442,Barnet London Boro
963,-3.6191604,50.5102229,Teignbridge District
964,-3.2380728,50.6830895,East Devon District
965,0.2789796,50.7758334,Eastbourne District (B)
966,0.028194,51.51806,Newham London Boro
967,-0.001834,51.551237,Newham London Boro
968,0.000927,51.550372,Waltham Forest London Boro
969,-0.0022268,51.5501647,Waltham Forest London Boro
970,0.0938671,51.5607004,Redbridge London Boro
971,0.0537406,51.5518151,Newham London Boro
972,-1.1771547,52.5674086,Blaby District
973,-0.3168243,54.1814704,Scarborough District (B)
974,-0.0419064,51.4742255,Lewisham London Boro
975,-1.648885,54.973641,Newcastle upon Tyne District (B)
976,-1.8352259,50.7249948,"Bournemouth, Christchurch and Poole"
977,0.2732076,50.795454,Eastbourne District (B)
978,1.3086732,52.0947663,East Suffolk District
979,0.556179,50.857084,Hastings District (B)
980,-1.191301,53.601813,Doncaster District (B)
981,-0.850027,53.725934,East Riding of Yorkshire
982,1.5777704,52.2048199,East Suffolk District
983,-1.5342095,53.9956248,Leeds District (B)
984,-0.3149302,51.5221068,Ealing London Boro
985,-2.5196132,51.0835874,South Somerset District
986,-0.1666912,51.6234949,Barnet London Boro
987,0.576939,50.860957,Hastings District (B)
988,-1.422774,52.925121,City of Derby (B)
989,-1.326701,53.587583,Wakefield District (B)
990,-0.073614,53.56688,North East Lincolnshire (B)
991,-2.1324876,53.5436643,Oldham District (B)
992,-0.3124949,51.4577135,Richmond upon Thames London Boro
993,-1.6193533,53.8853655,Leeds District (B)
994,-1.6733622,54.6664923,County Durham
995,-0.265479,51.399691,Merton London Boro
996,-0.5519705,51.5958055,Buckinghamshire
997,-5.0596696,50.2643977,Cornwall
998,-2.1654613,53.1060002,Staffordshire Moorlands District
999,-0.1791945,51.617599,Barnet London Boro
1000,0.0504256,51.4909024,Greenwich London Boro
1001,0.0507276,51.4912119,Greenwich London Boro
1002,-0.2649611,51.3274912,Epsom and Ewell District (B)
1003,-1.2335712,51.7442343,Oxford District (B)
1004,0.0959838,50.779635,Lewes District
1005,0.2658089,50.7604225,Eastbourne District (B)
1006,-0.366248,53.750651,City of Kingston upon Hull (B)
1007,-1.766412,53.8079061,Bradford District (B)
1008,-1.145479,52.966324,City of Nottingham (B)
1009,0.3647642,52.6043593,King's Lynn and West Norfolk District (B)
1010,0.505631,52.846074,King's Lynn and West Norfolk District (B)
1011,-1.0632383,50.7844259,City of Portsmouth (B)
1012,-0.1222275,51.28359,Tandridge District
1013,-2.1153382,50.8164903,Dorset
1014,-0.245905,50.918397,Mid Sussex District
1015,-1.167915,50.7203272,Isle of Wight
1016,-1.3442976,51.0545355,Winchester District (B)
1017,-0.86438,51.498985,Wokingham (B)
1018,-0.4024697,51.703524,Three Rivers District
1019,-0.467035,51.518996,Buckinghamshire
1020,-0.2111484,51.9156398,Stevenage District (B)
1021,-1.445093,52.8796085,City of Derby (B)
1022,0.8989788,51.729839,Maldon District (B)
1023,-0.4081857,51.7027114,Three Rivers District
1024,-0.015743,51.760656,Broxbourne District (B)
1025,-0.3851072,51.4642538,Hounslow London Boro
1026,-0.1972542,51.8159408,East Hertfordshire District
1027,-0.034233,51.415204,Bromley London Boro
1028,-0.1657386,50.8368277,The City of Brighton and Hove (B)
1029,1.1952916,51.8469703,Tendring District
1030,-1.3408957,53.7183853,Wakefield District (B)
1031,0.7214845,51.5367289,Southend-on-Sea (B)
1032,-0.197937,51.662765,Barnet London Boro
1033,-1.8862126,50.7957555,Dorset
1034,-0.268959,51.620921,Barnet London Boro
1035,0.8594833,51.8746762,Colchester District (B)
1036,1.1456777,51.7850257,Tendring District
1037,-1.4670716,55.0761375,Northumberland
1038,0.5540304,50.8631112,Hastings District (B)
1039,-2.0594605,52.5881068,Walsall District (B)
1040,-0.464975,51.734091,Dacorum District (B)
1041,-0.048788,51.893537,East Hertfordshire District
1042,-0.466134,51.916263,Luton (B)
1043,0.963021,50.9750179,Folkestone and Hythe District
1044,0.4913072,52.9415488,King's Lynn and West Norfolk District (B)
1045,-0.715728,51.07655,Chichester District
1046,0.5121044,51.8744802,Braintree District
1047,0.9463363,51.9029936,Colchester District (B)
1048,0.9535567,50.9745013,Folkestone and Hythe District
1049,-2.5289877,51.4562327,City of Bristol (B)
1050,-0.4299308,54.2788588,Scarborough District (B)
1051,0.5779842,50.8695953,Hastings District (B)
1052,-0.2905124,51.3841514,Elmbridge District (B)
1053,-3.392638,50.8605629,Mid Devon District
1054,-3.481188,50.693546,Exeter District (B)
1055,-1.2974759,53.7042454,Wakefield District (B)
1056,-1.2930012,53.6986131,Wakefield District (B)
1057,-0.295516,51.3987832,Richmond upon Thames London Boro
1058,0.6028171,50.8726776,Hastings District (B)
1059,0.5505043,50.8624823,Hastings District (B)
1060,-0.0182467,51.381814,Bromley London Boro
1061,-2.6378916,53.6539502,South Ribble District (B)
1062,-2.1495164,52.4648632,Dudley District (B)
1063,-2.0799737,52.4351649,Dudley District (B)
1064,-1.77624,53.807296,Bradford District (B)
1065,-1.77624,53.807296,Bradford District (B)
1066,-2.9475121,53.3825971,Liverpool District (B)
1067,-1.8293708,52.4931538,Birmingham District (B)
1068,-1.502658,53.841561,Leeds District (B)
1069,-2.3669578,51.7730772,Gloucester District (B)
1070,0.031069,51.527329,Newham London Boro
1071,-3.4976275,54.7175923,Allerdale District (B)
1072,-1.300144,51.75053,Vale of White Horse District
1073,-0.1079238,51.321777,Croydon London Boro
1074,-0.1331532,51.3433689,Croydon London Boro
1075,-1.542904,52.322433,Warwick District
1076,-1.542904,52.322433,Warwick District
1077,-0.168923,51.169077,Reigate and Banstead District (B)
1078,-1.053387,53.9524,York (B)
1079,-2.0390708,52.7190838,South Staffordshire District
1080,-4.1384397,50.3793906,City of Plymouth (B)
1081,-1.7940093,53.8129989,Bradford District (B)
1082,-1.6207959,54.9732099,Newcastle upon Tyne District (B)
1083,-1.2099605,50.7076429,Isle of Wight
1084,-1.1822425,50.6263086,Isle of Wight
1085,-1.186089,50.627064,Isle of Wight
1086,-1.5419127,50.6822879,Isle of Wight
1087,-1.6621234,50.7579551,New Forest District
1088,-0.1782862,51.6131302,Barnet London Boro
1089,-2.9954743,50.9802734,Somerset West and Taunton District
1090,-4.1247579,51.073025,North Devon District
1091,-4.2376049,51.0260622,North Devon District
1092,0.337238,53.130885,East Lindsey District
1093,-1.837817,53.925252,Bradford District (B)
1094,-0.110309,51.620001,Haringey London Boro
1095,-0.110309,51.620001,Haringey London Boro
1096,-0.904485,51.7073527,South Oxfordshire District
1097,-1.8073061,52.4360874,Solihull District (B)
1098,-1.4355945,53.2415558,North East Derbyshire District
1099,-1.8472436,52.4527502,Birmingham District (B)
1100,0.04892,52.498151,Fenland District
1101,0.04892,52.498151,Fenland District
1102,-0.7898659,50.823476,Chichester District
1103,-0.031258,53.556875,North East Lincolnshire (B)
1104,-1.0497825,54.5381426,Redcar and Cleveland (B)
1105,-1.0515568,54.5396124,Redcar and Cleveland (B)
1106,-1.050622,54.536701,Redcar and Cleveland (B)
1107,-1.0505896,54.5379961,Redcar and Cleveland (B)
1108,-0.052529,53.725401,East Riding of Yorkshire
1109,0.0655242,51.5288567,Newham London Boro
1110,0.018955,51.469488,Greenwich London Boro
1111,-0.6812158,52.3668215,North Northamptonshire
1112,-1.047252,50.86114,Havant District (B)
1113,-1.032909,50.886183,Havant District (B)
1114,-0.990782,50.791519,Havant District (B)
1115,-0.965702,50.881929,Havant District (B)
1116,-0.905481,53.716179,East Riding of Yorkshire
1117,-0.014135,51.586724,Waltham Forest London Boro
1118,-3.524885,50.482915,Torbay (B)
1119,-1.9837692,51.3467123,Wiltshire
1120,-1.790885,51.0994837,Wiltshire
1121,-1.790885,51.0994837,Wiltshire
1122,-2.1061009,51.4587996,Wiltshire
1123,-2.146978,51.455904,Wiltshire
1124,-1.317839,51.060979,Winchester District (B)
1125,-1.308532,51.064017,Winchester District (B)
1126,-1.171896,53.519884,Doncaster District (B)
1127,-3.0683558,52.8589587,Shropshire
1128,-2.2177117,52.1837636,County of Herefordshire
1129,-1.4481033,54.9030306,Sunderland District (B)
1130,-1.2071726,53.1603518,Newark and Sherwood District
1131,-1.9462682,52.5438954,Sandwell District (B)
1132,-1.852333,54.961829,Northumberland
1133,-2.4866094,52.7467948,Telford and Wrekin (B)
1134,1.3404808,51.9559938,East Suffolk District
1135,-1.41207,54.78468,County Durham
1136,-1.69625,50.740857,"Bournemouth, Christchurch and Poole"
1137,-0.0316854,51.6592382,Epping Forest District
1138,-0.426808,54.276571,Scarborough District (B)
1139,-1.534264,54.522302,Darlington (B)
1140,-0.3166721,50.8252338,Adur District
1141,-1.96481,51.712785,Cotswold District
1142,0.1194167,53.1663482,East Lindsey District
1143,-0.6530906,51.5284009,Slough (B)
1144,0.2478638,51.5460588,Havering London Boro
1145,-4.1598752,50.3843265,City of Plymouth (B)
1146,-3.314746,51.042222,Somerset West and Taunton District
1147,-4.211784,51.017192,North Devon District
1148,1.2013548,52.0388573,Ipswich District (B)
1149,-0.4605064,52.6543741,City of Peterborough (B)
1150,-0.1282538,51.6395773,Barnet London Boro
1151,-2.512874,51.482461,South Gloucestershire
1152,-1.439734,54.809371,Sunderland District (B)
1153,-5.083521,50.412394,Cornwall
1154,-1.806364,52.436311,Solihull District (B)
1155,-1.1427569,50.7839401,Gosport District (B)
1156,-0.423579,51.521721,Ealing London Boro
1157,-0.446805,52.1349854,Bedford (B)
1158,-4.2086543,51.0307145,North Devon District
1159,-1.1958681,52.9822969,City of Nottingham (B)
1160,-5.1050501,50.4107946,Cornwall
1161,-1.502095,52.882888,City of Derby (B)
1162,-3.0394961,51.0687621,Sedgemoor District
1163,-3.526222,50.485469,Torbay (B)
1164,-1.869494,54.83846,County Durham
1165,-1.142483,52.848357,Rushcliffe District (B)
1166,-0.2015949,51.8424708,North Hertfordshire District
1167,-0.1342963,51.4879709,City of Westminster London Boro
1168,-0.5892139,51.5190448,Slough (B)
1169,-2.5182421,51.437565,South Gloucestershire
1170,-2.5991869,51.4666399,City of Bristol (B)
1171,0.0224065,51.5409928,Newham London Boro
1172,-1.8835799,52.4229086,Birmingham District (B)
1173,-1.35868,53.0688642,Amber Valley District (B)
1174,-2.2190071,53.5387641,Manchester District (B)
1175,-0.885029,52.246629,West Northamptonshire
1176,1.7029014,52.5302228,East Suffolk District
1177,-4.128387,51.203614,North Devon District
1178,-3.524006,50.731567,Exeter District (B)
1179,0.004064,51.4405083,Lewisham London Boro
1180,0.0015766,51.4438421,Lewisham London Boro
1181,-0.299276,51.550341,Brent London Boro
1182,-2.1337355,52.4981,Dudley District (B)
1183,-3.491525,50.55374,Teignbridge District
1184,-0.0993014,51.6027019,Haringey London Boro
1185,-0.279999,51.550141,Brent London Boro
1186,-0.555744,51.87153,Central Bedfordshire
1187,-0.1844975,51.6829306,Hertsmere District (B)
1188,-0.5930871,52.3123637,North Northamptonshire
1189,-0.592554,52.313445,North Northamptonshire
1190,1.1915517,52.0664383,Ipswich District (B)
1191,-1.3717418,53.4534439,Rotherham District (B)
1192,-2.0154274,55.7512258,Northumberland
1193,-0.1550629,51.4741542,Wandsworth London Boro
1194,0.368414,51.87059,Braintree District
1195,-2.6785073,53.7235666,South Ribble District (B)
1196,-0.886787,53.707808,East Riding of Yorkshire
1197,-1.1955128,53.4755463,Doncaster District (B)
1198,-1.4571028,52.8960047,City of Derby (B)
1199,-3.233117,50.6841101,East Devon District
1200,-2.7767901,51.2749164,Sedgemoor District
1201,-0.879765,53.713774,East Riding of Yorkshire
1202,-1.3411588,53.4338637,Rotherham District (B)
1203,-1.3386635,53.434623,Rotherham District (B)
1204,-1.3378503,53.4356162,Rotherham District (B)
1205,-0.058611,52.930739,Boston District (B)
1206,-1.9313016,52.5438608,Birmingham District (B)
1207,-0.7236862,52.4098136,North Northamptonshire
1208,1.105457,52.375882,East Suffolk District
1209,-0.5135442,51.3594875,Woking District (B)
1210,1.733757,52.606266,Great Yarmouth District (B)
1211,1.3009867,52.7536747,Broadland District
1212,0.7295988,52.0365076,Babergh District
1213,-1.5627866,54.5260658,Darlington (B)
1214,-0.8669438,50.7636377,Chichester District
1215,-0.1896114,51.8828803,North Hertfordshire District
1216,-3.0526316,53.3947773,Wirral District (B)
1217,1.251758,52.794139,Broadland District
1218,1.734169,52.606936,Great Yarmouth District (B)
1219,0.0833654,51.4095389,Bromley London Boro
1220,-1.1909192,53.1521793,Newark and Sherwood District
1221,-0.4316395,53.723542,East Riding of Yorkshire
1222,-2.8470987,51.4495367,North Somerset
1223,-3.568155,50.432041,Torbay (B)
1224,-1.764627,53.809368,Bradford District (B)
1225,-0.6768791,51.5487146,Buckinghamshire
1226,-1.6429601,53.6864906,Kirklees District (B)
1227,-1.9936643,53.8908843,Bradford District (B)
1228,-1.5292817,53.8304534,Leeds District (B)
1229,-0.0187199,51.5732496,Waltham Forest London Boro
1230,-1.4421341,55.0425882,North Tyneside District (B)
1231,-0.782537,54.131683,East Riding of Yorkshire
1232,0.6802574,51.5470948,Southend-on-Sea (B)
1233,-1.5926455,54.290699,Darlington (B)
1234,-1.2974691,53.9993102,York (B)
1235,-0.9765946,54.5858613,Redcar and Cleveland (B)
1236,-0.2621886,52.2514485,Huntingdonshire District
1237,-0.194561,51.417612,Merton London Boro
1238,1.3138828,51.3774712,Thanet District
1239,-1.8077518,50.7224709,"Bournemouth, Christchurch and Poole"
1240,-1.652188,51.287356,Wiltshire
1241,-2.9687991,51.3535586,North Somerset
1242,-2.9808543,51.3316797,North Somerset
1243,-0.5840429,51.5063846,Slough (B)
1244,-0.640687,51.5150396,Slough (B)
1245,-0.5823992,51.5314886,Buckinghamshire
1246,-0.804343,51.821693,Buckinghamshire
1247,-0.5867721,51.50247,Slough (B)
1248,-0.6075571,51.7174361,Buckinghamshire
1249,0.542333,50.862738,Hastings District (B)
1250,0.5642377,50.8545451,Hastings District (B)
1251,-4.1706845,50.3804364,City of Plymouth (B)
1252,-4.1245662,50.3789704,City of Plymouth (B)
1253,-1.9718566,53.8969749,Bradford District (B)
1254,-0.2497317,51.7571077,St. Albans District (B)
1255,-1.3155872,52.5741328,Hinckley and Bosworth District (B)
1256,-1.1367922,52.9316225,Rushcliffe District (B)
1257,-0.1558008,51.3586466,Croydon London Boro
1258,-1.17789,50.855316,Fareham District (B)
1259,-0.7852286,50.7340196,Chichester District
1260,-3.198045,50.821689,East Devon District
1261,-0.459496,51.505328,Buckinghamshire
1262,-1.035595,52.949741,Rushcliffe District (B)
1263,-3.1711239,53.3981411,Wirral District (B)
1264,-0.1074234,51.4714975,Lambeth London Boro
1265,1.0210505,51.3507471,Swale District (B)
1266,-0.0476229,51.4742309,Lewisham London Boro
1267,1.1405698,51.3582691,Thanet District
1268,-1.835651,50.724861,"Bournemouth, Christchurch and Poole"
1269,-2.7953042,50.8196373,Dorset
1270,-0.108991,51.621464,Haringey London Boro
1271,-1.9581807,52.4308764,Birmingham District (B)
1272,-0.4469413,51.7102758,Dacorum District (B)
1273,-4.7503656,50.4580289,Cornwall
1274,-0.0719246,51.6408149,Waltham Forest London Boro
1275,0.111552,50.766556,Lewes District
1276,-0.8220737,52.4438568,North Northamptonshire
1277,-0.726641,52.406246,North Northamptonshire
1278,-2.943078,53.4159631,Liverpool District (B)
1279,-2.4660292,53.703432,Blackburn with Darwen (B)
1280,-2.9231965,54.8941833,Allerdale District (B)
1281,-0.320326,51.6897661,Hertsmere District (B)
1282,-3.0376469,53.8155069,Blackpool (B)
1283,0.033928,51.439985,Bromley London Boro
1284,-2.1311329,52.6181713,City of Wolverhampton District (B)
1285,-0.6834583,51.5870941,Buckinghamshire
1286,-0.6461219,50.8369601,Arun District
1287,-1.4886111,53.6713907,Wakefield District (B)
1288,-0.6273969,54.489221,Scarborough District (B)
1289,-0.5916743,51.5317981,Buckinghamshire
1290,-1.2916936,52.7603158,Charnwood District (B)
1291,-1.298175,52.768967,Charnwood District (B)
1292,-0.5476013,51.3217393,Woking District (B)
1293,-1.7089181,54.3765844,County Durham
1294,-1.7403028,52.3887435,Solihull District (B)
1295,-1.358168,53.6756218,Wakefield District (B)
1296,-0.4205172,51.5949466,Harrow London Boro
1297,-1.3470973,53.3281436,Sheffield District (B)
1298,-1.5141846,50.9442532,New Forest District
1299,0.682252,51.783605,Maldon District (B)
1300,-1.3885964,53.6858561,Wakefield District (B)
1301,-3.523837,50.467414,Torbay (B)
1302,-0.3405597,52.8944356,North Kesteven District
1303,-0.1136541,51.627114,Barnet London Boro
1304,-0.7003853,51.5401922,Windsor and Maidenhead (B)
1305,-2.7705523,54.2224153,Lancaster District (B)
1306,-2.2344968,51.8717147,Gloucester District (B)
1307,-2.234698,51.871355,Gloucester District (B)
1308,-3.0774445,53.2900659,Cheshire West and Chester (B)
1309,-1.606263,53.798509,Leeds District (B)
1310,-2.7098065,52.3736349,Shropshire
1311,-3.0449333,53.833645,Blackpool (B)
1312,-0.46841,52.144288,Bedford (B)
1313,-0.4251,51.8705737,Luton (B)
1314,-2.959845,53.738959,Sefton District (B)
1315,1.0975453,52.6596038,Broadland District
1316,-1.995528,55.758801,Northumberland
1317,0.6901635,51.537011,Southend-on-Sea (B)
1318,-4.909612,50.267904,Cornwall
1319,-0.1386283,51.3329795,Croydon London Boro
1320,-0.194487,52.146269,South Cambridgeshire District
1321,-2.2668252,53.5030009,Salford District (B)
1322,-2.2668252,53.5030009,Salford District (B)
1323,-1.5111722,53.374618,Sheffield District (B)
1324,-1.2277269,52.6214576,Blaby District
1325,-0.0403382,51.4345325,Lewisham London Boro
1326,-1.6981617,53.2440013,Derbyshire Dales District
1327,-2.254119,51.845915,Gloucester District (B)
1328,-2.4541993,50.7302234,Dorset
1329,0.0637017,51.5656959,Redbridge London Boro
1330,-0.058448,51.405104,Bromley London Boro
1331,1.6903862,52.6737283,Great Yarmouth District (B)
1332,-1.6223406,55.0443183,North Tyneside District (B)
1333,-1.2506429,54.5197186,Middlesbrough (B)
1334,-3.3257819,51.1598641,Somerset West and Taunton District
1335,-1.353464,54.568905,Stockton-on-Tees (B)
1336,-0.3836795,50.8110848,Worthing District (B)
1337,-0.2297371,51.9328615,North Hertfordshire District
1338,-0.0683724,50.8081139,The City of Brighton and Hove (B)
1339,-1.1917842,50.8117448,Gosport District (B)
1340,-1.630949,54.985229,Newcastle upon Tyne District (B)
1341,1.1427294,51.7847538,Tendring District
1342,-1.110863,52.962032,City of Nottingham (B)
1343,-0.3868567,53.774473,City of Kingston upon Hull (B)
1344,-1.402831,54.906187,Sunderland District (B)
1345,-0.3060893,51.5583533,Brent London Boro
1346,-1.3773076,53.5403116,Barnsley District (B)
1347,-1.782636,53.833112,Bradford District (B)
1348,-3.524159,50.474371,Torbay (B)
1349,-0.8022597,51.8088766,Buckinghamshire
1350,-0.3659505,51.6484676,Hertsmere District (B)
1351,0.023802,51.5708153,Redbridge London Boro
1352,-0.0404345,51.5172937,Tower Hamlets London Boro
1353,-2.1985265,53.0714667,City of Stoke-on-Trent (B)
1354,-1.9549695,52.2961007,Bromsgrove District
1355,-2.1601666,52.5804234,City of Wolverhampton District (B)
1356,0.0184367,50.7886477,Lewes District
1357,-1.6959607,52.6446352,Tamworth District (B)
1358,-1.9096105,52.6808232,Lichfield District
1359,-1.8265878,52.551307,Birmingham District (B)
1360,-1.469299,53.3465382,Sheffield District (B)
1361,-0.4756669,51.6398175,Three Rivers District
1362,0.01171,51.573157,Waltham Forest London Boro
1363,0.011968,51.573726,Waltham Forest London Boro
1364,-2.172665,53.110691,Staffordshire Moorlands District
1365,-0.190143,50.830841,The City of Brighton and Hove (B)
1366,-2.447046,53.103655,Cheshire East (B)
1367,0.0751239,52.2524565,South Cambridgeshire District
1368,-2.5988236,53.4320502,Warrington (B)
1369,-2.0296228,52.4981991,Sandwell District (B)
1370,-0.6425634,50.8333216,Arun District
1371,-0.2027776,51.8382896,North Hertfordshire District
1372,-0.2033003,51.8379199,North Hertfordshire District
1373,-0.869998,52.243858,West Northamptonshire
1374,-0.869998,52.243858,West Northamptonshire
1375,-0.079659,51.591492,Haringey London Boro
1376,-0.449158,52.0804587,Bedford (B)
1377,-1.5452323,52.8745746,South Derbyshire District
1378,-2.550666,51.427791,City of Bristol (B)
1379,-2.55752,51.4071032,Bath and North East Somerset
1380,-2.575662,51.276411,Mendip District
1381,-2.4959338,53.7314725,Blackburn with Darwen (B)
1382,-2.4267647,52.8183665,Telford and Wrekin (B)
1383,-1.584576,50.970263,New Forest District
1384,-1.0661769,50.8448359,City of Portsmouth (B)
1385,-0.2864537,52.0330679,Central Bedfordshire
1386,-2.620043,51.256897,Mendip District
1387,-2.751288,51.2547969,Mendip District
1388,-5.0596696,50.2643977,Cornwall
1389,-2.5124169,51.0899587,South Somerset District
1390,-1.4493687,53.544938,Barnsley District (B)
1391,-1.4493687,53.544938,Barnsley District (B)
1392,-1.6207959,54.9732099,Newcastle upon Tyne District (B)
1393,-0.1684466,53.9093835,East Riding of Yorkshire
1394,-2.1186698,52.5375279,Dudley District (B)
1395,-1.742091,53.797089,Bradford District (B)
1396,-1.7262625,50.7858076,New Forest District
1397,-3.0307076,50.7450496,East Devon District
1398,-5.11006,50.342366,Cornwall
1399,-0.072161,51.597736,Haringey London Boro
1400,-0.4406918,54.0145846,East Riding of Yorkshire
1401,-1.526771,52.534431,North Warwickshire District (B)
1402,-0.296996,51.412131,Richmond upon Thames London Boro
1403,1.7382151,52.4603364,East Suffolk District
1404,-2.6434684,52.039187,County of Herefordshire
1405,1.7361479,52.4628754,East Suffolk District
1406,-0.412545,53.782782,East Riding of Yorkshire
1407,-2.5498271,52.7114508,Telford and Wrekin (B)
1408,-3.0515054,53.7781381,Blackpool (B)
1409,-2.9875154,53.7376054,Sefton District (B)
1410,-1.1572424,52.6310079,City of Leicester (B)
1411,-3.0189746,53.6330987,Sefton District (B)
1412,-0.404123,54.2757606,Scarborough District (B)
1413,-0.324412,51.0718902,Mole Valley District
1414,-1.6250388,55.0015164,Newcastle upon Tyne District (B)
1415,-1.4491433,55.0415597,North Tyneside District (B)
1416,-0.1963864,51.356221,Reigate and Banstead District (B)
1417,-0.2333602,51.3445275,Epsom and Ewell District (B)
1418,0.488865,52.942926,King's Lynn and West Norfolk District (B)
1419,-3.522598,50.474463,Torbay (B)
1420,-2.103073,51.446123,Wiltshire
1421,-1.495862,52.910333,City of Derby (B)
1422,-0.6723323,51.9185353,Central Bedfordshire
1423,-2.189896,53.419753,Stockport District (B)
1424,-2.1991288,53.7042634,Calderdale District (B)
1425,-1.0517598,54.5334582,Redcar and Cleveland (B)
1426,-1.8104653,53.9223454,Bradford District (B)
1427,-3.519024,50.474213,Torbay (B)
1428,-1.543027,51.9357252,West Oxfordshire District
1429,-2.435908,50.710689,Dorset
1430,-0.414325,54.274853,Scarborough District (B)
1431,-2.1130646,52.4046256,Bromsgrove District
1432,-1.8276693,52.4498286,Birmingham District (B)
1433,-1.8296649,52.5314512,Birmingham District (B)
1434,-1.0767945,53.9657401,York (B)
1435,-1.1428292,52.6049144,City of Leicester (B)
1436,-0.3592712,50.8151676,Worthing District (B)
1437,-1.446339,51.728755,West Oxfordshire District
1438,-1.353603,54.5213745,Stockton-on-Tees (B)
1439,-2.39842,51.871506,Tewkesbury District (B)
1440,-1.584903,53.8461,Leeds District (B)
1441,-1.515936,52.4847717,Nuneaton and Bedworth District (B)
1442,-2.7218546,52.8630368,Shropshire
1443,-1.5301242,52.3025644,Warwick District
1444,0.2539399,53.3392965,East Lindsey District
1445,-1.3422654,53.550299,Barnsley District (B)
1446,-2.940676,54.932674,Allerdale District (B)
1447,-2.2410902,51.8471292,Gloucester District (B)
1448,-2.2342842,51.8699349,Gloucester District (B)
1449,-2.1823231,51.9001015,Tewkesbury District (B)
1450,-0.0106892,51.4354449,Lewisham London Boro
1451,-0.3319903,51.2285569,Mole Valley District
1452,-2.4499473,52.6967144,Telford and Wrekin (B)
1453,-2.6405649,53.6536393,South Ribble District (B)
1454,-1.8508277,53.7907208,Bradford District (B)
1455,-1.0217424,51.0998361,Winchester District (B)
1456,-3.0588519,52.8566627,Shropshire
1457,-1.1775582,53.1063776,Newark and Sherwood District
1458,-2.4912485,53.7269334,Blackburn with Darwen (B)
1459,-1.0260286,50.8872519,Havant District (B)
1460,-0.3312886,53.8019293,City of Kingston upon Hull (B)
1461,-1.329078,51.029585,Winchester District (B)
1462,0.255298,51.66373,Brentwood District (B)
1463,0.2540652,51.6627423,Brentwood District (B)
1464,-2.1533973,52.4550052,Dudley District (B)
1465,-0.5077712,50.8034103,Arun District
1466,-1.8089532,51.5830713,Swindon (B)
1467,-4.1209813,51.2069323,North Devon District
1468,-0.245562,51.589822,Barnet London Boro
1469,-2.0617026,52.4544235,Dudley District (B)
1470,-2.1077964,52.5103978,Dudley District (B)
1471,-2.1242338,52.5239205,Dudley District (B)
1472,-2.122416,53.0088866,City of Stoke-on-Trent (B)
1473,1.3976705,52.6858089,Broadland District
1474,-2.99342,51.244926,Sedgemoor District
1475,-4.0486952,50.3874286,City of Plymouth (B)
1476,-1.8487817,52.5881042,Birmingham District (B)
1477,-1.0701603,53.9381447,York (B)
1478,-2.7733746,53.8976944,Lancaster District (B)
1479,-1.0779012,54.6167641,Redcar and Cleveland (B)
1480,-0.973455,51.146402,Hart District
1481,-1.49128,50.907406,New Forest District
1482,-1.329633,50.92596,Eastleigh District (B)
1483,-0.312118,52.672107,City of Peterborough (B)
1484,-1.625959,54.6538099,County Durham
1485,-1.4607604,52.5267504,Nuneaton and Bedworth District (B)
1486,-1.470715,52.520179,Nuneaton and Bedworth District (B)
1487,-1.479524,52.524263,Nuneaton and Bedworth District (B)
1488,-1.4800289,52.5239597,Nuneaton and Bedworth District (B)
1489,-1.5444631,52.291342,Warwick District
1490,-1.685748,52.2120693,Warwick District
1491,-1.4681713,52.181909,Warwick District
1492,1.0596969,51.8548144,Tendring District
1493,-1.797966,53.646807,Kirklees District (B)
1494,-0.3734383,53.761154,City of Kingston upon Hull (B)
1495,-0.4362521,53.7405646,East Riding of Yorkshire
1496,1.2150997,52.943812,North Norfolk District
1497,-5.5349644,50.1158772,Cornwall
1498,-5.2870506,50.2613675,Cornwall
1499,-5.242114,50.2318644,Cornwall
1500,-3.1135556,53.4023165,Wirral District (B)
1501,-0.4778781,52.1407818,Bedford (B)
1502,-1.3820462,53.7927997,Leeds District (B)
1503,-1.3824871,53.7927571,Leeds District (B)
1504,-1.9767518,53.4627583,High Peak District (B)
1505,-0.756856,52.268905,North Northamptonshire
1506,-0.2676682,51.5303747,Brent London Boro
1507,-0.4380616,53.599225,North Lincolnshire (B)
1508,-4.15945,50.868936,West Devon District (B)
1509,-1.800568,52.432984,Solihull District (B)
1510,0.8108481,51.8459636,Colchester District (B)
1511,0.780391,51.879739,Colchester District (B)
1512,-1.067885,50.783285,City of Portsmouth (B)
1513,-1.8297135,52.453922,Birmingham District (B)
1514,-1.0579828,53.8338455,York (B)
1515,-3.001026,51.246174,Sedgemoor District
1516,-5.312316,50.178587,Cornwall
1517,-2.353569,53.484277,Salford District (B)
1518,-1.2965507,50.6980085,Isle of Wight
1519,-2.0991466,54.9708301,Northumberland
1520,-2.467667,54.969998,Northumberland
1521,-1.86783,54.957113,Northumberland
1522,-3.0097601,53.6476309,Sefton District (B)
1523,-0.1659976,53.9154896,East Riding of Yorkshire
1524,-0.6256588,50.7943367,Arun District
1525,-0.202997,53.153343,East Lindsey District
1526,-0.633984,52.9194092,North Kesteven District
1527,-1.709999,53.6931853,Kirklees District (B)
1528,-2.21749,53.0592632,City of Stoke-on-Trent (B)
1529,-1.3956823,54.9233956,Sunderland District (B)
1530,-0.8826962,53.7066551,East Riding of Yorkshire
1531,-1.067042,50.7829006,City of Portsmouth (B)
1532,-2.7415939,54.9393735,Northumberland
1533,-1.605749,53.7497018,Leeds District (B)
1534,-1.5391841,52.773635,South Derbyshire District
1535,-1.686149,53.676623,Kirklees District (B)
1536,-1.7851063,53.5794561,Kirklees District (B)
1537,-1.3247958,53.5886549,Wakefield District (B)
1538,-1.4641054,53.5365655,Barnsley District (B)
1539,-1.887162,53.747133,Calderdale District (B)
1540,-2.9173614,51.9607992,County of Herefordshire
1541,0.621355,51.937511,Braintree District
1542,-0.629932,52.01282,Central Bedfordshire
1543,-0.1961833,51.5665401,Barnet London Boro
1544,-1.090796,50.789077,City of Portsmouth (B)
1545,-0.6928427,50.7841823,Arun District
1546,-0.7961838,51.3710317,Bracknell Forest (B)
1547,1.37355,51.2215577,Dover District
1548,-1.453853,51.9150261,West Oxfordshire District
1549,0.5072812,51.2747927,Maidstone District (B)
1550,-0.218956,51.3334732,Epsom and Ewell District (B)
1551,-1.3109958,54.5805781,Stockton-on-Tees (B)
1552,-1.7878606,53.8035418,Bradford District (B)
1553,-0.4580732,51.8956206,Luton (B)
1554,-2.9980411,51.2466132,Sedgemoor District
1555,0.594294,51.9745777,Braintree District
1556,-2.580805,51.916467,County of Herefordshire
1557,-1.5036671,53.5517348,Barnsley District (B)
1558,-1.503923,53.552085,Barnsley District (B)
1559,0.0217406,51.5799693,Redbridge London Boro
1560,1.3571242,51.9628595,East Suffolk District
1561,0.2822182,50.7762485,Eastbourne District (B)
1562,0.264376,50.758049,Eastbourne District (B)
1563,-1.240275,52.396145,Rugby District (B)
1564,-0.8869224,51.0511566,Chichester District
1565,-2.7683958,50.7345827,Dorset
1566,1.1514776,51.7922904,Tendring District
1567,-1.813886,50.722427,"Bournemouth, Christchurch and Poole"
1568,-1.7835442,50.7372574,"Bournemouth, Christchurch and Poole"
1569,0.2705764,50.7552122,Eastbourne District (B)
1570,-1.0445256,51.4786234,West Berkshire
1571,-1.0441621,51.4787913,West Berkshire
1572,-1.04389,51.4787171,West Berkshire
1573,-1.0438665,51.4784652,West Berkshire
1574,-1.0442268,51.4784501,West Berkshire
1575,-1.0448233,51.4781583,West Berkshire
1576,-1.045198,51.4781433,West Berkshire
1577,-1.0450398,51.4783749,West Berkshire
1578,-2.9510341,54.8855718,Allerdale District (B)
1579,-0.423941,51.887094,Luton (B)
1580,0.8859698,51.3040896,Swale District (B)
1581,0.4577074,50.8374378,Rother District
1582,-0.3424916,51.7373393,St. Albans District (B)
1583,-1.3316341,51.0570805,Winchester District (B)
1584,1.3535095,52.5637629,Broadland District
1585,0.002694,51.463778,Lewisham London Boro
1586,-0.000499,51.461225,Lewisham London Boro
1587,-1.221028,54.557062,Middlesbrough (B)
1588,-0.0555552,51.5642977,Hackney London Boro
1589,-3.523875,50.480396,Torbay (B)
1590,-2.8517307,51.4509868,City of Bristol (B)
1591,-2.3111937,53.4925928,Salford District (B)
1592,1.4405267,52.6328652,Broadland District
1593,-1.0569262,50.8464431,City of Portsmouth (B)
1594,-2.3615681,53.1485152,Cheshire East (B)
1595,0.07941,51.494403,Greenwich London Boro
1596,-0.4438188,53.7575966,East Riding of Yorkshire
1597,-0.3990333,54.2731405,Scarborough District (B)
1598,-1.4810048,53.7005104,Wakefield District (B)
1599,-1.105825,53.954724,York (B)
1600,-2.3075157,53.496719,Salford District (B)
1601,-1.0937944,50.7866007,City of Portsmouth (B)
1602,-2.45814,50.6267604,Dorset
1603,-1.7937547,50.7226268,"Bournemouth, Christchurch and Poole"
1604,-1.8184466,52.4060782,Solihull District (B)
1605,-0.168351,51.616887,Barnet London Boro
1606,-1.4627931,53.4136825,Sheffield District (B)
1607,-1.4537005,53.5022155,Barnsley District (B)
1608,-1.983973,52.500377,Sandwell District (B)
1609,-1.9858983,52.5151571,Sandwell District (B)
1610,-1.1623988,51.1003588,Winchester District (B)
1611,-2.4503075,53.7433007,Blackburn with Darwen (B)
1612,-2.9422323,53.4260283,Liverpool District (B)
1613,0.0341125,51.4091632,Bromley London Boro
1614,-0.1885308,51.234122,Reigate and Banstead District (B)
1615,-0.3828575,50.8128431,Worthing District (B)
1616,-0.6535354,50.7875842,Arun District
1617,-4.3815663,50.8976312,Cornwall
1618,0.1008041,51.5611166,Redbridge London Boro
1619,-2.9702299,51.3472332,North Somerset
1620,-2.9785104,51.3388929,North Somerset
1621,-2.585133,51.912687,County of Herefordshire
1622,-0.6749295,50.7915883,Arun District
1623,-1.566826,55.011966,North Tyneside District (B)
1624,-1.8021333,52.5721837,Birmingham District (B)
1625,-0.0468531,51.8933037,East Hertfordshire District
1626,-1.4857475,53.3645032,Sheffield District (B)
1627,0.0628355,51.5612238,Redbridge London Boro
1628,-0.9788307,53.0047281,Newark and Sherwood District
1629,-1.228532,53.4849736,Doncaster District (B)
1630,-5.0602414,50.4175423,Cornwall
1631,-3.466595,50.5792111,Teignbridge District
1632,-3.1136118,51.0050776,Somerset West and Taunton District
1633,-4.4802854,50.8272168,Cornwall
1634,-0.1504056,53.7144786,East Riding of Yorkshire
1635,-1.535676,55.179911,Northumberland
1636,-1.152406,52.976179,City of Nottingham (B)
1637,-0.417506,54.295728,Scarborough District (B)
1638,-0.7096337,51.5624323,Buckinghamshire
1639,-0.2452043,51.2757497,Reigate and Banstead District (B)
1640,-0.7281428,51.4832716,Windsor and Maidenhead (B)
1641,-0.4309138,51.6962192,Three Rivers District
1642,-2.1169856,51.4657486,Wiltshire
1643,-0.595559,52.290806,North Northamptonshire
1644,-0.483396,52.141955,Bedford (B)
1645,-3.2207258,50.6984101,East Devon District
1646,0.5221654,51.3759995,Medway (B)
1647,-4.048683,51.071143,North Devon District
1648,-1.1498449,50.7215728,Isle of Wight
1649,-2.794249,52.536941,Shropshire
1650,-2.1350883,52.980254,City of Stoke-on-Trent (B)
1651,-1.476334,55.000028,North Tyneside District (B)
1652,1.402174,52.7018415,Broadland District
1653,-0.80025,51.090716,Chichester District
1654,-0.2007,50.830303,The City of Brighton and Hove (B)
1655,-0.1225883,51.3415364,Croydon London Boro
1656,-2.9737839,53.6600249,Sefton District (B)
1657,-1.7340701,51.5100952,Swindon (B)
1658,0.2730153,50.7774518,Eastbourne District (B)
1659,-1.8798835,50.7295186,"Bournemouth, Christchurch and Poole"
1660,-2.9750086,51.34233,North Somerset
1661,-2.9751713,51.3425535,North Somerset
1662,-1.5026092,53.3780882,Sheffield District (B)
1663,-0.3143957,51.5069111,Ealing London Boro
1664,-1.5228522,53.3747349,Sheffield District (B)
1665,1.39726,51.22075,Dover District
1666,1.386404,51.221749,Dover District
1667,0.9893105,51.028936,Folkestone and Hythe District
1668,-3.045157,53.854838,Blackpool (B)
1669,-1.120086,53.530303,Doncaster District (B)
1670,0.029024,51.62326,Epping Forest District
1671,-0.174976,51.616648,Barnet London Boro
1672,-0.196375,51.6047939,Barnet London Boro
1673,-1.514261,52.417555,Coventry District (B)
1674,-1.6118601,54.95538,Gateshead District (B)
1675,-1.517106,54.9112323,Sunderland District (B)
1676,-1.5373004,54.5215678,Darlington (B)
1677,-1.5517883,55.0214023,North Tyneside District (B)
1678,-1.2515282,54.5574789,Middlesbrough (B)
1679,0.0329249,51.4747504,Greenwich London Boro
1680,0.027185,51.541108,Newham London Boro
1681,-0.1052316,51.3961216,Croydon London Boro
1682,-2.557238,53.376347,Warrington (B)
1683,-0.092121,53.5519482,North East Lincolnshire (B)
1684,-0.0762063,53.5593256,North East Lincolnshire (B)
1685,-1.2890202,54.5322956,Stockton-on-Tees (B)
1686,-1.0741617,54.5346871,Redcar and Cleveland (B)
1687,-1.459094,52.412722,Coventry District (B)
1688,-1.7611392,52.4213135,Solihull District (B)
1689,-0.394887,51.51884,Ealing London Boro
1690,-1.4054831,50.8511267,New Forest District
1691,-1.5315201,54.5217702,Darlington (B)
1692,-1.3177659,51.408732,West Berkshire
1693,-1.2615645,51.4042014,West Berkshire
1694,-1.4518568,51.3986815,West Berkshire
1695,-1.512214,51.406879,West Berkshire
1696,-4.4623073,50.4558318,Cornwall
1697,-1.596192,54.9295023,Gateshead District (B)
1698,-1.2646368,51.7747242,Oxford District (B)
1699,-3.6490968,50.7875311,Mid Devon District
1700,-1.81138,52.686019,Lichfield District
1701,-1.7176159,54.9649451,Gateshead District (B)
1702,-1.5957387,54.9467096,Gateshead District (B)
1703,-1.6789594,54.9532121,Gateshead District (B)
1704,-0.391187,50.8122882,Worthing District (B)
1705,0.2821789,50.7753903,Eastbourne District (B)
1706,-3.5342845,50.6966204,Exeter District (B)
1707,1.1498758,51.7869998,Tendring District
1708,-1.6052228,54.9538759,Gateshead District (B)
1709,-1.5763396,54.9720621,Newcastle upon Tyne District (B)
1710,-1.62831,55.007021,Newcastle upon Tyne District (B)
1711,0.07785,51.649042,Epping Forest District
1712,1.0348728,51.3630408,Swale District (B)
1713,-2.1538081,53.4265104,Stockport District (B)
1714,-2.1472488,52.5658138,City of Wolverhampton District (B)
1715,1.163362,51.077952,Folkestone and Hythe District
1716,-2.1788002,52.9656337,City of Stoke-on-Trent (B)
1717,-0.398906,54.270092,Scarborough District (B)
1718,-0.561011,53.621936,North Lincolnshire (B)
1719,-1.31531,52.576747,Hinckley and Bosworth District (B)
1720,-1.1771681,52.576156,Blaby District
1721,-1.1931755,52.5812867,Blaby District
1722,-2.2360495,51.8065334,Gloucester District (B)
1723,-0.2026048,51.5868257,Barnet London Boro
1724,-1.3915605,53.5376344,Barnsley District (B)
1725,-1.2303426,53.3795941,Rotherham District (B)
1726,-1.2341847,53.3793653,Rotherham District (B)
1727,-1.2359038,52.6446574,Hinckley and Bosworth District (B)
1728,-2.637281,50.9390826,South Somerset District
1729,-2.637877,50.938901,South Somerset District
1730,-2.637877,50.938901,South Somerset District
1731,-2.639482,50.938729,South Somerset District
1732,-1.525559,54.0011,Leeds District (B)
1733,-1.849735,52.883341,East Staffordshire District (B)
1734,-1.3110286,54.5804704,Stockton-on-Tees (B)
1735,0.2447339,51.4217929,Dartford District (B)
1736,-2.0069572,51.4439395,Wiltshire
1737,-2.5512903,51.4851941,City of Bristol (B)
1738,0.8488702,52.8286985,North Norfolk District
1739,-2.039545,52.637745,South Staffordshire District
1740,-3.519477,50.478677,Torbay (B)
1741,-3.519477,50.478677,Torbay (B)
1742,-0.3310083,51.7549808,St. Albans District (B)
1743,-2.2108624,52.6332487,South Staffordshire District
1744,-1.8731944,52.9054192,East Staffordshire District (B)
1745,-0.9472748,52.2449976,West Northamptonshire
1746,-1.477133,51.7893835,West Oxfordshire District
1747,-5.1355314,50.1638868,Cornwall
1748,-1.8754306,53.7527251,Calderdale District (B)
1749,-4.093587,50.363157,City of Plymouth (B)
1750,-0.6174226,52.3288795,North Northamptonshire
1751,-3.120259,54.606299,Allerdale District (B)
1752,-0.7966863,51.2066863,Waverley District (B)
1753,-3.3896849,50.6270548,East Devon District
1754,-2.180263,53.0950839,Staffordshire Moorlands District
1755,-1.9815377,52.5123426,Sandwell District (B)
1756,-0.3035482,53.7792829,City of Kingston upon Hull (B)
1757,-1.117418,52.657706,City of Leicester (B)
1758,-2.2420763,53.0826232,Newcastle-under-Lyme District (B)
1759,-1.1856,52.83089,Rushcliffe District (B)
1760,-2.751952,52.726575,Shropshire
1761,-2.878675,52.642619,Shropshire
1762,-0.685263,52.736707,Rutland
1763,-2.2730984,53.7956159,Burnley District (B)
1764,-0.3397756,51.7608599,St. Albans District (B)
1765,-0.4536147,51.7574388,Dacorum District (B)
1766,-2.77034,52.671799,Shropshire
1767,1.2366486,52.4919755,East Suffolk District
1768,-1.01211,51.456685,Reading (B)
1769,-0.98898,51.451488,Reading (B)
1770,-1.875947,50.755521,"Bournemouth, Christchurch and Poole"
1771,-1.554279,53.988005,Leeds District (B)
1772,-1.4939229,53.3731397,Sheffield District (B)
1773,-1.382718,53.926859,Leeds District (B)
1774,-1.0168501,53.6893479,East Riding of Yorkshire
1775,-0.534541,54.434231,Scarborough District (B)
1776,0.7855217,52.5964297,King's Lynn and West Norfolk District (B)
1777,1.1620831,51.1232399,Folkestone and Hythe District
1778,-0.3993418,50.8142607,Worthing District (B)
1779,-0.3840436,50.8126306,Worthing District (B)
1780,-1.141669,53.556561,Doncaster District (B)
1781,-2.852557,54.0769,Lancaster District (B)
1782,-1.1262436,53.0077224,Gedling District (B)
1783,-0.1504056,53.7144786,East Riding of Yorkshire
1784,-1.5191628,53.3791447,Sheffield District (B)
1785,-1.298175,52.768967,Charnwood District (B)
1786,1.3377162,51.3846198,Thanet District
1787,1.450919,52.578607,Norwich District (B)
1788,-0.3667002,50.8131185,Worthing District (B)
1789,-1.1078665,52.6105268,City of Leicester (B)
1790,-1.543287,53.665701,Wakefield District (B)
1791,-0.8899215,52.204922,West Northamptonshire
1792,-1.6892179,53.7121612,Kirklees District (B)
1793,-0.651882,52.33843,North Northamptonshire
1794,1.5477748,52.7792756,North Norfolk District
1795,-1.362863,52.9734205,Erewash District (B)
1796,-1.5037038,52.9265683,City of Derby (B)
1797,1.2481052,51.8307987,Tendring District
1798,-2.978997,51.341514,North Somerset
1799,-1.595872,54.928719,Gateshead District (B)
1800,-1.596125,54.929978,Gateshead District (B)
1801,-1.9936566,52.9954597,Staffordshire Moorlands District
1802,0.3358465,51.4771279,Thurrock (B)
1803,-1.9523854,50.7281678,"Bournemouth, Christchurch and Poole"
1804,0.3138918,51.3944393,Dartford District (B)
1805,-1.6639944,55.1605271,Northumberland
1806,-2.259672,54.976425,Northumberland
1807,-1.427964,55.018833,North Tyneside District (B)
1808,-0.952749,53.3206066,Bassetlaw District
1809,-1.2948176,53.0689075,Broxtowe District (B)
1810,1.2950799,52.6382897,Norwich District (B)
1811,-2.1026999,53.4944193,Tameside District (B)
1812,-2.858232,51.4362199,North Somerset
1813,-1.494917,52.935095,City of Derby (B)
1814,1.4109742,51.3320721,Thanet District
1815,-2.3105745,53.4986167,Salford District (B)
1816,-2.5791591,51.3674363,Bath and North East Somerset
1817,-1.9896855,51.080058,Wiltshire
1818,-2.3034472,51.1198317,Wiltshire
1819,-1.0393136,53.8023642,East Riding of Yorkshire
1820,-1.0763968,53.7786836,East Riding of Yorkshire
1821,-0.0393947,52.9526307,Boston District (B)
1822,1.1357115,51.3721072,Thanet District
1823,1.1117325,51.3698597,Thanet District
1824,-1.989291,53.366799,High Peak District (B)
1825,-0.8814323,52.2516028,West Northamptonshire
1826,-0.881895,52.251874,West Northamptonshire
1827,-1.2586842,50.918976,Winchester District (B)
1828,-1.1522461,50.7306011,Isle of Wight
1829,-1.959357,52.6192834,Walsall District (B)
1830,-1.4740036,52.4829656,Nuneaton and Bedworth District (B)
1831,0.5614537,51.5542106,Castle Point District (B)
1832,-1.373544,50.892698,City of Southampton (B)
1833,-0.416179,51.895028,Luton (B)
1834,-0.4596643,51.9047679,Luton (B)
1835,-0.4223138,51.8895898,Luton (B)
1836,-0.7510476,51.3305085,Surrey Heath District (B)
1837,-3.323697,50.906762,Mid Devon District
1838,-2.498167,51.418657,Bath and North East Somerset
1839,-0.159216,51.4103,Merton London Boro
1840,0.4119475,51.2910602,Tonbridge and Malling District (B)
1841,-2.090539,53.481791,Tameside District (B)
1842,-1.5070575,50.9204793,New Forest District
1843,-3.5237357,50.4786825,Torbay (B)
1844,-0.9065106,53.3515665,Bassetlaw District
1845,0.0049294,50.7883141,Lewes District
1846,-3.2374291,50.6904494,East Devon District
1847,-1.4879966,51.2075523,Basingstoke and Deane District (B)
1848,-3.0665445,53.392361,Wirral District (B)
1849,-2.962673,53.8763536,Blackpool (B)
1850,-1.4214603,52.8193621,South Derbyshire District
1851,0.803888,51.428268,Swale District (B)
1852,1.3914591,51.3761758,Thanet District
1853,-1.4493687,53.544938,Barnsley District (B)
1854,0.0740026,51.4320613,Greenwich London Boro
1855,-3.6831716,50.8371909,Mid Devon District
1856,-1.44415,55.0450507,North Tyneside District (B)
1857,-1.8147428,50.7243077,"Bournemouth, Christchurch and Poole"
1858,-1.8365687,50.725869,"Bournemouth, Christchurch and Poole"
1859,-1.0572365,53.3695472,Bassetlaw District
1860,0.103004,51.75616,Harlow District
1861,-1.8342808,52.6406929,Lichfield District
1862,-1.336865,54.22232,York (B)
1863,1.267099,52.614756,Norwich District (B)
1864,-0.4598368,52.1466759,Bedford (B)
1865,1.4779117,52.7400517,North Norfolk District
1866,-1.3947469,53.7382794,Leeds District (B)
1867,-1.84433,50.726626,"Bournemouth, Christchurch and Poole"
1868,-0.700997,52.49201,North Northamptonshire
1869,0.231978,51.55991,Havering London Boro
1870,1.7137746,52.4158001,East Suffolk District
1871,-0.9984066,54.2535615,Scarborough District (B)
1872,1.3920817,51.1982849,Dover District
1873,-1.536711,53.819436,Leeds District (B)
1874,0.2727899,51.1358215,Tunbridge Wells District (B)
1875,-0.033741,50.800286,Lewes District
1876,-1.228728,54.6840253,Hartlepool (B)
1877,-0.134864,51.42603,Lambeth London Boro
1878,-2.4841215,53.773696,Ribble Valley District (B)
1879,0.0339417,51.4082309,Bromley London Boro
1880,0.024969,51.41246,Bromley London Boro
1881,-0.017275,51.2595479,Tandridge District
1882,0.4770596,51.5714737,Basildon District (B)
1883,0.4359048,51.5159389,Thurrock (B)
1884,-1.4996491,52.3925284,Coventry District (B)
1885,-2.0459738,53.5167459,Tameside District (B)
1886,-2.1146015,53.4977072,Tameside District (B)
1887,-2.1030597,53.4439758,Tameside District (B)
1888,-2.8955508,53.4819383,Knowsley District (B)
1889,-2.9155127,53.2073994,Cheshire West and Chester (B)
1890,-2.032021,53.493417,Tameside District (B)
1891,-2.847268,53.406991,Knowsley District (B)
1892,-2.06841,53.486013,Tameside District (B)
1893,-2.1560564,53.4896425,Tameside District (B)
1894,-2.0722535,53.4686808,Tameside District (B)
1895,-2.0722535,53.4686808,Tameside District (B)
1896,-0.2064575,51.3646039,Epsom and Ewell District (B)
1897,0.059999,51.565509,Redbridge London Boro
1898,-0.190583,54.084214,East Riding of Yorkshire
1899,-2.9774122,53.4385573,Liverpool District (B)
1900,-2.1712945,53.3964288,Stockport District (B)
1901,0.101819,51.397707,Bromley London Boro
1902,-4.1689997,50.3798948,City of Plymouth (B)
1903,-0.1733014,51.7997811,East Hertfordshire District
1904,-0.1796343,51.7919843,East Hertfordshire District
1905,-0.1660537,51.801116,East Hertfordshire District
1906,-2.1673194,52.9420896,City of Stoke-on-Trent (B)
1907,-2.4918735,53.7568172,Blackburn with Darwen (B)
1908,-2.2341661,53.7886787,Burnley District (B)
1909,0.933343,51.837691,Colchester District (B)
1910,-3.567101,50.439781,Torbay (B)
1911,-1.6089363,53.8016812,Leeds District (B)
1912,-0.710924,51.575467,Buckinghamshire
1913,-2.5831517,51.4882197,City of Bristol (B)
1914,-2.5830992,51.4886246,City of Bristol (B)
1915,-1.140652,54.557048,Redcar and Cleveland (B)
1916,-1.079704,54.616463,Redcar and Cleveland (B)
1917,-1.2330928,54.5675638,Middlesbrough (B)
1918,-1.1574542,54.5768479,Redcar and Cleveland (B)
1919,-1.427561,53.3565538,Sheffield District (B)
1920,-0.080145,53.554067,North East Lincolnshire (B)
1921,-1.431734,52.890318,City of Derby (B)
1922,-0.7571101,53.1507082,Newark and Sherwood District
1923,-1.3156955,52.9002091,Erewash District (B)
1924,-2.9149506,53.3630845,Liverpool District (B)
1925,-1.0742899,50.7843702,City of Portsmouth (B)
1926,0.336388,51.4894108,Thurrock (B)
1927,-1.8904992,50.7645913,"Bournemouth, Christchurch and Poole"
1928,1.068323,52.7338917,Broadland District
1929,-0.1702833,51.3981806,Merton London Boro
1930,-0.3638112,53.7356962,City of Kingston upon Hull (B)
1931,-0.0134769,51.4408339,Lewisham London Boro
1932,-0.077243,51.586822,Haringey London Boro
1933,-0.3648051,51.5124266,Ealing London Boro
1934,0.02776,51.606944,Redbridge London Boro
1935,-2.4636438,53.701401,Blackburn with Darwen (B)
1936,-1.9451413,53.9150043,Bradford District (B)
1937,0.5523197,50.8554163,Hastings District (B)
1938,-2.761358,53.430501,St. Helens District (B)
1939,-0.109946,51.6029997,Haringey London Boro
1940,-2.0860769,51.8906722,Cheltenham District (B)
1941,-1.6710636,53.7067828,Kirklees District (B)
1942,-2.198611,51.85628,Gloucester District (B)
1943,-0.7492987,51.6153109,Buckinghamshire
1944,-2.283554,51.727817,Cotswold District
1945,-1.3916445,54.8982051,Sunderland District (B)
1946,-0.072161,51.597736,Haringey London Boro
1947,-0.079659,51.591492,Haringey London Boro
1948,-0.208282,52.5897447,City of Peterborough (B)
1949,-0.2878051,52.6212562,City of Peterborough (B)
1950,-1.918586,50.716378,"Bournemouth, Christchurch and Poole"
1951,-2.95618,54.206346,Lancaster District (B)
1952,-1.6969417,53.7607611,Kirklees District (B)
1953,-0.069258,51.393205,Croydon London Boro
1954,-2.8256182,51.3905405,North Somerset
1955,-4.1105156,50.5119274,West Devon District (B)
1956,-0.1614712,53.9142929,East Riding of Yorkshire
1957,-0.207749,51.48891,Kensington and Chelsea London Boro
1958,1.3013679,52.928289,North Norfolk District
1959,-3.5011447,50.7185909,Exeter District (B)
1960,-2.852155,51.450344,City of Bristol (B)
1961,-1.96344,52.47358,Birmingham District (B)
1962,0.458917,52.776532,King's Lynn and West Norfolk District (B)
1963,-0.4211724,54.2765334,Scarborough District (B)
1964,-1.3635,54.866509,Sunderland District (B)
1965,0.5147871,51.3699463,Medway (B)
1966,-3.5589497,50.4459308,Torbay (B)
1967,-0.3399626,53.7518544,City of Kingston upon Hull (B)
1968,-1.3681659,53.4528947,Rotherham District (B)
1969,-1.7672842,52.4775134,Birmingham District (B)
1970,-1.8297417,52.4504159,Birmingham District (B)
1971,-1.825759,52.449125,Birmingham District (B)
1972,-0.848122,53.423946,Bassetlaw District
1973,-1.973256,52.5747482,Walsall District (B)
1974,-2.2364502,52.3830555,Wyre Forest District
1975,-2.0931745,54.9687411,Northumberland
1976,-0.7017686,52.631239,Rutland
1977,-2.4108792,53.7503812,Blackburn with Darwen (B)
1978,-0.2422109,51.4962116,Hounslow London Boro
1979,-0.5267072,51.8442946,Central Bedfordshire
1980,-2.562283,53.3755402,Warrington (B)
1981,-2.7910499,50.9132236,South Somerset District
1982,-2.0846991,53.5529658,Oldham District (B)
1983,-3.08884,51.185812,Sedgemoor District
1984,-2.326388,53.585166,Bury District (B)
1985,-2.1255406,52.800262,South Staffordshire District
1986,-1.5912124,54.7863316,County Durham
1987,-1.2310707,54.7028767,Hartlepool (B)
1988,-1.4743774,54.9701296,South Tyneside District (B)
1989,-1.4633965,55.0275668,North Tyneside District (B)
1990,-1.0771003,54.6027883,Redcar and Cleveland (B)
1991,-1.579298,55.08736,Northumberland
1992,-1.6494358,54.9800336,Newcastle upon Tyne District (B)
1993,-1.6907756,55.1590157,Northumberland
1994,-2.4063996,53.5894266,Bolton District (B)
1995,-2.8456406,54.077263,Lancaster District (B)
1996,0.886221,51.168902,Ashford District (B)
1997,-1.8261992,52.5318238,Birmingham District (B)
1998,-1.539955,53.8311689,Leeds District (B)
1999,-0.686085,50.782847,Arun District
2000,-1.302347,54.560676,Stockton-on-Tees (B)
2001,-1.156951,52.972184,City of Nottingham (B)
2002,-2.2694137,53.4071866,Manchester District (B)
2003,-1.4930493,52.9080393,City of Derby (B)
2004,-2.58464,51.909435,County of Herefordshire
2005,-1.9165661,53.8764122,Bradford District (B)
2006,1.1114152,51.0723102,Folkestone and Hythe District
2007,-0.1892908,51.3183422,Reigate and Banstead District (B)
2008,-0.3459793,51.3141134,Mole Valley District
2009,-1.3007831,54.5634892,Stockton-on-Tees (B)
2010,-3.0274666,53.6331932,Sefton District (B)
2011,-0.205765,54.104012,East Riding of Yorkshire
2012,0.4473986,51.3300398,Tonbridge and Malling District (B)
2013,0.5052006,51.4111982,Medway (B)
2014,-2.1724012,53.8564398,Pendle District (B)
2015,0.2417247,52.7045582,King's Lynn and West Norfolk District (B)
2016,-4.2366577,51.0297065,North Devon District
2017,-1.8574995,50.7240709,"Bournemouth, Christchurch and Poole"
2018,-2.6579928,53.7825801,Preston District (B)
2019,-1.866756,52.735575,Lichfield District
2020,-1.866756,52.735575,Lichfield District
2021,-2.765101,52.6868101,Shropshire
2022,-2.563519,52.382865,Shropshire
2023,1.1943984,52.6801615,Broadland District
2024,-0.443332,51.524116,Ealing London Boro
2025,-0.443332,51.524116,Ealing London Boro
2026,0.9693045,50.9846257,Folkestone and Hythe District
2027,0.0013207,51.5629637,Waltham Forest London Boro
2028,-1.144994,52.981232,City of Nottingham (B)
2029,-0.980951,53.965811,York (B)
2030,-0.384047,51.434118,Hounslow London Boro
2031,-1.3764664,53.5749757,Barnsley District (B)
2032,-1.242457,53.126189,Gedling District (B)
2033,0.969815,50.9881566,Folkestone and Hythe District
2034,0.9668165,50.9844911,Folkestone and Hythe District
2035,0.494914,51.7202384,Braintree District
2036,-0.1102428,51.6219335,Barnet London Boro
2037,-0.2415748,51.4591982,Wandsworth London Boro
2038,0.3429335,53.1371919,East Lindsey District
2039,0.0952689,51.5678162,Redbridge London Boro
2040,0.061216,51.567196,Redbridge London Boro
2041,-0.0794066,51.4062407,Croydon London Boro
2042,-1.0135915,53.0186561,Newark and Sherwood District
2043,-0.329,53.20912,West Lindsey District
2044,-1.1938212,53.0122448,City of Nottingham (B)
2045,1.4318853,52.5717232,Norwich District (B)
2046,-0.536792,53.9856,East Riding of Yorkshire
2047,-2.8663211,53.8554084,Preston District (B)
2048,-2.9873849,53.8515789,Blackpool (B)
2049,-1.4908331,52.9103664,City of Derby (B)
2050,-0.0569796,51.6334016,Waltham Forest London Boro
2051,-0.12721,51.550859,Islington London Boro
2052,-1.2818755,51.6719884,Vale of White Horse District
2053,-1.4697721,52.9177094,City of Derby (B)
2054,-4.169501,50.377016,City of Plymouth (B)
2055,-1.7890064,52.5133701,Birmingham District (B)
2056,-1.1189715,53.3033014,Bassetlaw District
2057,-1.6199831,53.8276111,Leeds District (B)
2058,-1.7785525,52.5193778,Birmingham District (B)
2059,0.1299982,52.1923122,Cambridge District (B)
2060,-2.821581,53.412789,Knowsley District (B)
2061,-2.8384295,54.0758934,Lancaster District (B)
2062,-1.865842,50.731488,"Bournemouth, Christchurch and Poole"
2063,-3.056709,53.43013,Wirral District (B)
2064,-2.9533872,54.9711732,Allerdale District (B)
2065,-1.945324,50.708938,"Bournemouth, Christchurch and Poole"
2066,-1.402634,53.7904143,Leeds District (B)
2067,-2.491806,51.436917,South Gloucestershire
2068,-2.445532,53.564039,Bolton District (B)
2069,0.9579085,52.679433,Broadland District
2070,-0.4661318,52.0968938,Bedford (B)
2071,-0.1027539,50.8321872,The City of Brighton and Hove (B)
2072,0.2468651,52.5235546,King's Lynn and West Norfolk District (B)
2073,-2.3714451,53.3811962,Trafford District (B)
2074,-2.3811206,53.880374,Ribble Valley District (B)
2075,-1.3340239,53.2467938,North East Derbyshire District
2076,-3.49992,50.549617,Teignbridge District
2077,0.5401599,51.3356456,Medway (B)
2078,-4.0636939,50.3855354,City of Plymouth (B)
2079,-1.319516,53.590036,Wakefield District (B)
2080,-0.113766,50.960544,Mid Sussex District
2081,-0.1057135,51.622463,Haringey London Boro
2082,0.100631,51.533566,Barking and Dagenham London Boro
2083,0.522515,51.377218,Medway (B)
2084,-3.2075859,50.9737258,Somerset West and Taunton District
2085,-0.430071,51.9176036,Luton (B)
2086,-1.3724123,53.3057585,North East Derbyshire District
2087,-2.0680582,53.4734382,Tameside District (B)
2088,-2.0755335,53.5003091,Tameside District (B)
2089,-2.0640993,53.4457469,Tameside District (B)
2090,-2.847268,53.406991,Knowsley District (B)
2091,-1.8246738,53.6521072,Kirklees District (B)
2092,-2.0623446,53.4606238,Tameside District (B)
2093,-2.6403773,53.5323864,Wigan District (B)
2094,-1.7852433,53.5789468,Kirklees District (B)
2095,-2.319719,52.112197,County of Herefordshire
2096,-3.07042,50.706427,East Devon District
2097,-0.910958,52.481272,Harborough District
2098,0.6786762,51.5567631,Southend-on-Sea (B)
2099,-1.2052876,52.920234,Broxtowe District (B)
2100,-2.58596,51.469116,City of Bristol (B)
2101,-2.6083769,51.481114,City of Bristol (B)
2102,-1.1666235,52.9624896,City of Nottingham (B)
2103,-0.2400773,52.6016219,City of Peterborough (B)
2104,-0.1196023,51.4183132,Lambeth London Boro
2105,-2.4619617,53.5685066,Bolton District (B)
2106,-3.9747443,51.0442702,North Devon District
2107,-1.605207,54.698471,County Durham
2108,-1.3926886,53.0574734,Amber Valley District (B)
2109,-0.5452567,52.3354125,North Northamptonshire
2110,-4.0610033,51.0875443,North Devon District
2111,-1.1750627,50.727941,Isle of Wight
2112,-2.5154794,51.0905837,South Somerset District
2113,-2.394505,51.387991,Bath and North East Somerset
2114,-3.0843248,50.7020084,East Devon District
2115,-1.3301418,51.7320656,Vale of White Horse District
2116,-4.166678,50.377694,City of Plymouth (B)
2117,-1.333453,54.840476,County Durham
2118,-1.392233,54.8984686,Sunderland District (B)
