,district_name,lat,lng
0,Ipswich District (B),52.0880186,1.1504522
1,Wirral District (B),53.3455149,-3.0025802
2,Bury District (B),53.5584641,-2.2953434
3,Hastings District (B),50.8574833,0.5619122
4,Lewisham London Boro,51.4420937,0.0028528
5,Scarborough District (B),54.2890237,-0.4086035
6,Cornwall,50.355628,-4.702077
7,Exeter District (B),50.721429,-3.5074387
8,St. Albans District (B),51.7293698,-0.3032516
9,County Durham,54.786148,-1.52816
10,North East Lincolnshire (B),53.5527004,-0.0397029
11,Birmingham District (B),52.5328668,-1.8862388
12,Carlisle District (B),54.8696936,-2.9314467
13,South Cambridgeshire District,52.185966,0.206206
14,Maidstone District (B),51.258636,0.531267
15,Wealden District,51.0193611,0.27891
16,South Cambridgeshire District,52.186941,0.208155
17,Bedford (B),52.1446023,-0.5320232
18,North Norfolk District,52.927404,1.114158
19,York (B),53.964128,-1.0488823
20,Salford District (B),53.5030009,-2.2668252
21,Rochdale District (B),53.5543656,-2.194363
22,Salford District (B),53.5030009,-2.2668252
23,North Hertfordshire District,51.9902773,-0.1856439
24,North Hertfordshire District,51.9899552,-0.1851617
25,North Hertfordshire District,51.9837633,-0.1900575
26,Birmingham District (B),52.4004023,-1.9875125
27,West Lancashire District (B),53.5489828,-2.7259121
28,Newcastle-under-Lyme District (B),53.0446985,-2.2374933
29,City of Plymouth (B),50.3907321,-4.1423689
30,County of Herefordshire,52.049588,-2.6887345
31,West Northamptonshire,52.236958,-0.891085
32,Tamworth District (B),52.6422072,-1.6921646
33,Solihull District (B),52.39434,-1.816371
34,Teignbridge District,50.4817366,-3.7730116
35,West Northamptonshire,52.245744,-0.882693
36,Arun District,50.7831637,-0.689424
37,Mansfield District,53.1521793,-1.1909192
38,Kingston upon Thames London Boro,51.3927332,-0.2535104
39,Birmingham District (B),52.447764,-1.829605
40,West Northamptonshire,52.2712711,-0.9128424
41,North Northamptonshire,52.4687696,-0.7191257
42,West Northamptonshire,52.25204,-1.160866
43,North Northamptonshire,52.2903415,-0.6079779
44,Trafford District (B),53.3710334,-2.3525696
45,County Durham,54.8364644,-1.3578379
46,Tendring District,51.93127,1.228314
47,South Kesteven District,52.9260825,-0.6357823
48,Teignbridge District,50.584424,-3.492339
49,Darlington (B),54.5220672,-1.5644081
50,Arun District,50.7915883,-0.6749295
51,Cornwall,50.3100922,-5.1980488
52,Ashford District (B),51.068689,0.853512
53,Ashford District (B),51.1657321,0.8780359
54,Ashford District (B),51.0319451,0.7888316
55,Great Yarmouth District (B),52.7107836,1.6363801
56,Colchester District (B),51.895327,0.82422
57,North East Lincolnshire (B),53.478046,-0.135057
58,South Norfolk District,52.6480763,1.218851
59,Trafford District (B),53.4248812,-2.3150777
60,Trafford District (B),53.4219428,-2.3377477
61,North East Lincolnshire (B),53.557998,-0.0420549
62,Mole Valley District,51.304195,-0.315736
63,City of Southampton (B),50.9397717,-1.3988716
64,Greenwich London Boro,51.4846727,0.0814303
65,Stafford District (B),52.9487106,-2.0988991
66,Cornwall,50.3579559,-4.4548609
67,Cornwall,50.501516,-4.308314
68,Stroud District,51.6843542,-2.3486795
69,Bury District (B),53.5991855,-2.2667213
70,Breckland District,52.5699891,0.8587758
71,Reigate and Banstead District (B),51.315927,-0.185468
72,Mid Suffolk District,52.1826876,0.9984853
73,Cannock Chase District,52.713463,-1.992008
74,Windsor and Maidenhead (B),51.3957805,-0.6595752
75,Reigate and Banstead District (B),51.3145628,-0.2282955
76,Wandsworth London Boro,51.458354,-0.182608
77,Brentwood District (B),51.6175024,0.2925709
78,Newham London Boro,51.512515,0.0661397
79,Barnsley District (B),53.520582,-1.393147
80,Barnsley District (B),53.520582,-1.393147
81,Three Rivers District,51.6571129,-0.4546299
82,Mansfield District,53.157127,-1.1476057
83,Southend-on-Sea (B),51.5396546,0.6776134
84,Buckinghamshire,51.5803998,-0.7590032
85,Waverley District (B),51.1120187,-0.7374027
86,Greenwich London Boro,51.4719405,-0.0108731
87,Ashford District (B),51.165658,0.813019
88,Ashfield District,53.0307971,-1.194892
89,Fenland District,52.6573114,0.1451127
90,Wealden District,50.872321,0.25092
91,Blackpool (B),53.8319812,-3.0553155
92,Boston District (B),52.955637,-0.034904
93,Fylde District (B),53.7365575,-2.9573543
94,City of Portsmouth (B),50.846855,-1.045654
95,Havant District (B),50.868319,-1.025889
96,Surrey Heath District (B),51.3360547,-0.7466477
97,Kingston upon Thames London Boro,51.41553,-0.252992
98,Great Yarmouth District (B),52.584134,1.7081725
99,Braintree District,51.9375793,0.6407842
100,City of Peterborough (B),52.672107,-0.312118
101,City of Derby (B),52.8960047,-1.4571028
102,"Bournemouth, Christchurch and Poole",50.7498946,-1.998091
103,Thanet District,51.3804228,1.3042932
104,Hinckley and Bosworth District (B),52.5436284,-1.3637195
105,Hinckley and Bosworth District (B),52.5422528,-1.3636804
106,Guildford District (B),51.294337,-0.540691
107,Basingstoke and Deane District (B),51.3526113,-1.1275229
108,Worthing District (B),50.8150946,-0.3820521
109,Doncaster District (B),53.501328,-1.063032
110,Walsall District (B),52.6596156,-1.9357929
111,Barnet London Boro,51.6295177,-0.1764038
112,Cheltenham District (B),51.8939412,-2.0637188
113,Forest of Dean District,51.8749876,-2.4607297
114,Bradford District (B),53.8715328,-1.9181118
115,Tewkesbury District (B),51.9383066,-2.155146
116,Wealden District,50.8240992,0.2404944
117,Rotherham District (B),53.4267887,-1.3459034
118,Dudley District (B),52.455004,-2.1610642
119,Wiltshire,51.3533264,-2.2515937
120,Stratford-on-Avon District,52.1808419,-1.7673937
121,Enfield London Boro,51.6667277,-0.0461543
122,City of Derby (B),52.885069,-1.418283
123,North Devon District,51.2069323,-4.1209813
124,Huntingdonshire District,52.3326077,-0.1900374
125,York (B),54.0157696,-1.0713952
126,Milton Keynes (B),51.9759019,-0.7320626
127,Mid Devon District,50.942064,-3.3160601
128,Warwick District,52.277988,-1.4980853
129,Welwyn Hatfield District (B),51.7817968,-0.1895692
130,Walsall District (B),52.6228725,-1.9565938
131,Bedford (B),52.1209427,-0.4918218
132,Harrow London Boro,51.5811524,-0.3556713
133,Sheffield District (B),53.359111,-1.4185819
134,"Bournemouth, Christchurch and Poole",50.726398,-1.944194
135,Oadby and Wigston District (B),52.583596,-1.1337696
136,East Lindsey District,53.1262008,0.3394805
137,Enfield London Boro,51.6427364,-0.0860362
138,Colchester District (B),51.8795937,0.7865139
139,Solihull District (B),52.4082938,-1.7139954
140,Dorset,50.8164461,-1.8577679
141,Sefton District (B),53.4626247,-2.9710589
142,Dartford District (B),51.421926,0.241087
143,City of Kingston upon Hull (B),53.73313,-0.3953986
144,Sefton District (B),53.6582832,-2.9884291
145,West Lindsey District,53.408758,-0.786657
146,Enfield London Boro,51.666744,-0.071099
147,Blackpool (B),53.8483195,-3.0525344
148,Brentwood District (B),51.6003314,0.3031173
149,Blackpool (B),53.8347005,-3.0288976
150,Swale District (B),51.3486842,0.6859182
151,City of Plymouth (B),50.3824133,-4.0495199
152,North Northamptonshire,52.4910038,-0.6823356
153,East Riding of Yorkshire,53.7258824,-0.4505447
154,Harrow London Boro,51.6005045,-0.3777142
155,Gloucester District (B),51.8346936,-2.2743594
156,Fareham District (B),50.8682908,-1.2581949
157,Staffordshire Moorlands District,53.107858,-2.016433
158,Sevenoaks District,51.1978696,0.0625366
159,Cheshire West and Chester (B),53.1808303,-2.5357562
160,North East Lincolnshire (B),53.5121009,-0.1242261
161,Forest of Dean District,51.8572497,-2.4942995
162,Kirklees District (B),53.665437,-1.7714978
163,Gosport District (B),50.802725,-1.200923
164,Walsall District (B),52.6002939,-1.9879523
165,Tendring District,51.9042791,1.18908
166,South Somerset District,51.0454262,-2.4613706
167,North Somerset,51.3404348,-2.9801511
168,Darlington (B),54.544363,-1.5360843
169,Coventry District (B),52.4310319,-1.5210546
170,Rochdale District (B),53.6331158,-2.1144409
171,County of Herefordshire,51.9240601,-2.573034
172,Haringey London Boro,51.5782689,-0.1539093
173,Buckinghamshire,51.6153109,-0.7492987
174,South Oxfordshire District,51.6213229,-1.1162117
175,North Somerset,51.3528314,-2.9686545
176,Wirral District (B),53.3914673,-3.1857315
177,South Hams District,50.4303598,-3.8295813
178,City of Nottingham (B),52.9721331,-1.1548527
179,Brent London Boro,51.5602586,-0.29856
180,City of Bristol (B),51.481638,-2.607937
181,Sandwell District (B),52.5595497,-2.0047063
182,Rochdale District (B),53.6313101,-2.191375
183,Ashfield District,53.0185112,-1.2250542
184,"Bournemouth, Christchurch and Poole",50.7197503,-2.0142261
185,Ealing London Boro,51.5209131,-0.3044807
186,Middlesbrough (B),54.5799322,-1.2294581
187,North Devon District,51.0729145,-4.049894
188,Mansfield District,53.1701423,-1.241893
189,Blackpool (B),53.7848564,-3.0355698
190,East Riding of Yorkshire,53.7405646,-0.4362521
191,Redbridge London Boro,51.5693841,0.107145
192,Wakefield District (B),53.6083608,-1.3529893
193,Cornwall,50.122348,-5.537274
194,Cornwall,50.122348,-5.537274
195,Barnsley District (B),53.5931834,-1.3776338
196,Broadland District,52.6615411,1.3277739
197,Great Yarmouth District (B),52.7028184,1.5864106
198,King's Lynn and West Norfolk District (B),52.768848,0.422459
199,Great Yarmouth District (B),52.5810297,1.7107896
200,Canterbury District (B),51.2823502,1.0564868
201,Shropshire,52.3891212,-2.7679499
202,North Northamptonshire,52.4124585,-0.7306812
203,Reigate and Banstead District (B),51.2880999,-0.2304784
204,Northumberland,55.0761375,-1.4670716
205,South Staffordshire District,52.664208,-2.012052
206,North Northamptonshire,52.4395204,-0.8208653
207,Ealing London Boro,51.5149058,-0.3069377
208,North Northamptonshire,52.471129,-0.733691
209,West Northamptonshire,52.2779507,-0.8963064
210,West Northamptonshire,52.2712711,-0.9128424
211,West Northamptonshire,52.25204,-1.160866
212,West Northamptonshire,52.1269349,-0.9909613
213,West Northamptonshire,52.3274902,-0.9060943
214,North Northamptonshire,52.4687696,-0.7191257
215,North Northamptonshire,52.2903415,-0.6079779
216,West Northamptonshire,52.276098,-0.828167
217,Hounslow London Boro,51.4848018,-0.2546602
218,Tendring District,51.8032131,1.1486564
219,Greenwich London Boro,51.4842709,0.0485869
220,Walsall District (B),52.569974,-2.0233143
221,The City of Brighton and Hove (B),50.8370726,-0.1641525
222,West Lindsey District,53.4983156,-0.3121018
223,Basingstoke and Deane District (B),51.270279,-1.1297133
224,Basingstoke and Deane District (B),51.2494787,-1.1009339
225,Basingstoke and Deane District (B),51.247382,-1.1390141
226,Basingstoke and Deane District (B),51.2726682,-1.1281487
227,Basingstoke and Deane District (B),51.2584255,-1.0869444
228,Test Valley District,51.001604,-1.500185
229,Basingstoke and Deane District (B),51.2621578,-1.1175124
230,South Oxfordshire District,51.5316413,-0.8981396
231,City of Stoke-on-Trent (B),53.0769086,-2.2224302
232,Redcar and Cleveland (B),54.5990588,-1.0660884
233,North Northamptonshire,52.5630433,-0.5855819
234,Croydon London Boro,51.3259274,-0.1351246
235,Reigate and Banstead District (B),51.2365167,-0.1638833
236,St. Albans District (B),51.8283881,-0.3816427
237,Enfield London Boro,51.648532,-0.082253
238,Epping Forest District,51.626946,0.041641
239,Wyre Forest District,52.3913622,-2.2377087
240,Bromley London Boro,51.4147162,0.0135492
241,Craven District,53.8942994,-1.9898749
242,East Hampshire District,50.9047681,-1.0192549
243,Sutton London Boro,51.359872,-0.1859011
244,Windsor and Maidenhead (B),51.415357,-0.686787
245,Epsom and Ewell District (B),51.3553932,-0.2630024
246,South Holland District,52.8168895,0.0025136
247,Winchester District (B),50.9165499,-1.2709837
248,Eastbourne District (B),50.7778588,0.2793476
249,Dover District,51.1336802,1.3058354
250,Worthing District (B),50.815097,-0.3856381
251,Arun District,50.7886646,-0.6788143
252,Tandridge District,51.2546068,-0.0080433
253,Bradford District (B),53.779903,-1.8267981
254,Rother District,50.8991964,0.524463
255,East Lindsey District,53.3168265,0.281253
256,West Berkshire,51.412875,-1.509893
257,Warrington (B),53.37744,-2.595253
258,Dover District,51.22255,1.39384
259,Gloucester District (B),51.8714426,-2.2311693
260,Ealing London Boro,51.5540175,-0.3514427
261,Harrow London Boro,51.5925331,-0.3172389
262,Northumberland,55.1800143,-1.5160616
263,Chichester District,50.8359196,-0.8176913
264,Broadland District,52.6281281,1.3514121
265,Folkestone and Hythe District,51.084282,1.186915
266,Lewes District,50.9273279,0.0195242
267,Hackney London Boro,51.557614,-0.04987
268,Havant District (B),50.7927815,-1.0008453
269,County Durham,54.7630972,-1.3198514
270,Calderdale District (B),53.7328275,-1.9017672
271,Barnet London Boro,51.6486627,-0.1535284
272,Sefton District (B),53.6489068,-3.0078506
273,Stockport District (B),53.3960057,-2.1587809
274,Dartford District (B),51.4461541,0.2102517
275,South Tyneside District (B),54.9776344,-1.5019829
276,City of Nottingham (B),52.978502,-1.225502
277,Rotherham District (B),53.3739601,-1.2102771
278,Newcastle upon Tyne District (B),54.9732975,-1.6438218
279,South Oxfordshire District,51.5883429,-1.1296892
280,Tewkesbury District (B),51.9537395,-2.0713633
281,Wyre District (B),53.8488778,-2.9883189
282,Chorley District (B),53.6534796,-2.6401842
283,North Northamptonshire,52.3311494,-0.5672195
284,Waltham Forest London Boro,51.5881302,0.0031195
285,Greenwich London Boro,51.4812221,0.0736139
286,Thanet District,51.3564337,1.4413031
287,Blaby District,52.631352,-1.2289105
288,West Northamptonshire,52.0915592,-1.0212295
289,Redbridge London Boro,51.573877,0.022524
290,Northumberland,54.899878,-2.264714
291,Cornwall,50.8355378,-4.5465736
292,Tandridge District,51.2162692,-0.0588564
293,Arun District,50.7909845,-0.6716549
294,Wealden District,51.053044,0.1463181
295,Camden London Boro,51.5524781,-0.1385098
296,Kirklees District (B),53.6948742,-1.6584651
297,Waltham Forest London Boro,51.6184979,0.002073
298,Spelthorne District (B),51.4080788,-0.4900854
299,County Durham,54.8912813,-1.8392195
300,Kingston upon Thames London Boro,51.3656612,-0.3077499
301,The City of Brighton and Hove (B),50.826803,-0.173402
302,Braintree District,51.9374467,0.6411156
303,Windsor and Maidenhead (B),51.514964,-0.7924155
304,Doncaster District (B),53.5278013,-1.1200139
305,Runnymede District (B),51.4299365,-0.5746402
306,"Bournemouth, Christchurch and Poole",50.7375857,-1.8804723
307,Swindon (B),51.6350523,-1.7101402
308,Cornwall,50.119806,-5.535058
309,Shropshire,52.78026,-3.069466
310,Bedford (B),52.141145,-0.460153
311,Isle of Wight,50.6352511,-1.173801
312,Dover District,51.205275,1.381257
313,South Oxfordshire District,51.525759,-1.13503
314,Cornwall,50.2183039,-5.2884548
315,Hillingdon London Boro,51.539097,-0.473419
316,Gedling District (B),53.0017357,-1.1348881
317,Windsor and Maidenhead (B),51.3957805,-0.6595752
318,Brentwood District (B),51.6175024,0.2925709
319,Buckinghamshire,51.5803998,-0.7590032
320,Kingston upon Thames London Boro,51.41553,-0.252992
321,Waverley District (B),51.1120187,-0.7374027
322,Reigate and Banstead District (B),51.3145628,-0.2282955
323,Brent London Boro,51.5339672,-0.2667532
324,City of Kingston upon Hull (B),53.7367529,-0.3615414
325,Babergh District,51.9736684,0.8691299
326,County Durham,54.6323013,-1.5656948
327,Fareham District (B),50.817975,-1.2125868
328,Stafford District (B),52.8125656,-2.1580823
329,County Durham,54.9071634,-1.7419136
330,Walsall District (B),52.5682559,-2.0013873
331,Croydon London Boro,51.3648186,-0.1030474
332,Barnet London Boro,51.575563,-0.172318
333,Bradford District (B),53.7675678,-1.8370284
334,East Suffolk District,52.4500907,1.4425767
335,South Norfolk District,52.4663757,1.4463961
336,Sutton London Boro,51.3606283,-0.209342
337,East Suffolk District,52.477241,1.696649
338,Cornwall,50.3456924,-5.1531644
339,Blaby District,52.5536413,-1.1504608
340,Wandsworth London Boro,51.4406572,-0.1653919
341,South Tyneside District (B),54.9706205,-1.4877864
342,County Durham,54.65271,-1.746084
343,Haringey London Boro,51.597369,-0.144241
344,Harrow London Boro,51.6138117,-0.3691948
345,Ealing London Boro,51.5206814,-0.3108604
346,East Devon District,50.7260292,-3.0667301
347,Cornwall,50.220198,-5.2865309
348,South Somerset District,50.8891452,-2.9486097
349,Bromley London Boro,51.4074384,0.0314189
350,Folkestone and Hythe District,51.0856027,1.1742384
351,Folkestone and Hythe District,51.0856018,1.1741383
352,Folkestone and Hythe District,51.0886888,1.1441422
353,Folkestone and Hythe District,51.0886084,1.1441224
354,West Suffolk District,52.2367099,0.7048236
355,Erewash District (B),52.9745691,-1.3109181
356,Chichester District,51.028282,-0.87495
357,City of Kingston upon Hull (B),53.756937,-0.363805
358,Bolton District (B),53.5843087,-2.4687653
359,West Suffolk District,52.330486,0.8819056
360,County Durham,54.6828569,-1.5378885
361,Havant District (B),50.868319,-1.025889
362,King's Lynn and West Norfolk District (B),52.938076,0.4899762
363,Oxford District (B),51.7575108,-1.216656
364,Gloucester District (B),51.842773,-2.2344334
365,North Lincolnshire (B),53.6033617,-0.6800847
366,Uttlesford District,51.9880264,0.2063249
367,Dudley District (B),52.4538847,-2.1431815
368,Birmingham District (B),52.5083115,-1.9127189
369,Liverpool District (B),53.3407148,-2.8417678
370,Liverpool District (B),53.4292886,-2.9632442
371,Hartlepool (B),54.6770145,-1.2173537
372,City of Plymouth (B),50.37813,-4.1228126
373,South Ribble District (B),53.7448511,-2.5972972
374,Torbay (B),50.4772948,-3.517911
375,Dartford District (B),51.4482179,0.2818236
376,Isle of Wight,50.657683,-1.156771
377,Welwyn Hatfield District (B),51.76057,-0.222376
378,Chichester District,50.728355,-0.79764
379,Blaby District,52.5875627,-1.1615446
380,Huntingdonshire District,52.4508627,-0.1192687
381,St. Albans District (B),51.7540587,-0.3420968
382,Stroud District,51.6913012,-2.457061
383,Sandwell District (B),52.5227511,-2.0271634
384,North Warwickshire District (B),52.6221826,-1.6138666
385,North Warwickshire District (B),52.5993059,-1.6145991
386,North Warwickshire District (B),52.6224039,-1.6155781
387,North Warwickshire District (B),52.599261,-1.614599
388,North Warwickshire District (B),52.599261,-1.614599
389,North Warwickshire District (B),52.5833941,-1.5461101
390,North Warwickshire District (B),52.6188173,-1.621252
391,North Warwickshire District (B),52.6022023,-1.6068811
392,North Warwickshire District (B),52.610094,-1.6146964
393,Cornwall,50.1827659,-5.4157693
394,South Somerset District,50.9299043,-2.6497913
395,Wokingham (B),51.4851031,-0.862709
396,Merton London Boro,51.3920048,-0.2039316
397,Bradford District (B),53.8059001,-1.7655576
398,South Gloucestershire,51.5329638,-2.4838434
399,South Cambridgeshire District,52.278517,0.0482095
400,South Oxfordshire District,51.5054528,-0.8815243
401,Wyre District (B),53.8787422,-3.0466814
402,County Durham,54.729188,-1.751057
403,Huntingdonshire District,52.2270127,-0.266042
404,Fenland District,52.5420226,0.0852899
405,Cornwall,50.3373167,-4.8011061
406,Mendip District,51.2023492,-2.6545705
407,Cheshire East (B),53.0708654,-2.4928004
408,East Devon District,50.716749,-2.9688224
409,Havant District (B),50.7844728,-0.9799327
410,Sheffield District (B),53.363483,-1.4974254
411,West Oxfordshire District,51.8600953,-1.5950813
412,Cherwell District,52.0542039,-1.3444708
413,Arun District,50.8171365,-0.5100878
414,Wirral District (B),53.375235,-3.180401
415,Barrow-in-Furness District (B),54.132945,-3.2095589
416,Brent London Boro,51.5859112,-0.3052379
417,New Forest District,50.9442532,-1.5141846
418,County Durham,54.8420897,-1.335007
419,Brent London Boro,51.5923039,-0.2688358
420,Buckinghamshire,51.7726988,-0.7314743
421,Worthing District (B),50.8122593,-0.3788744
422,South Oxfordshire District,51.5088801,-0.8921035
423,Tonbridge and Malling District (B),51.2976421,0.3451847
424,Waltham Forest London Boro,51.572555,-0.0196593
425,Croydon London Boro,51.3348852,-0.1155241
426,Runnymede District (B),51.3931172,-0.4909085
427,Charnwood District (B),52.762627,-1.222586
428,County Durham,54.7686925,-1.5224378
429,Havering London Boro,51.581007,0.18847
430,East Devon District,50.7629479,-2.9694021
431,East Hampshire District,51.106943,-0.813505
432,East Hampshire District,51.106943,-0.813505
433,Redcar and Cleveland (B),54.5848724,-0.9733854
434,Hinckley and Bosworth District (B),52.575039,-1.312199
435,Torbay (B),50.4295031,-3.5586635
436,Somerset West and Taunton District,51.0130229,-3.0911789
437,Croydon London Boro,51.347628,-0.095543
438,City of Peterborough (B),52.5865174,-0.2394868
439,City of Wolverhampton District (B),52.591239,-2.152427
440,Gedling District (B),52.9798009,-1.0869888
441,Wiltshire,51.3389078,-1.7694631
442,Gedling District (B),52.9798009,-1.0869888
443,Southwark London Boro,51.453181,-0.0782
444,Sutton London Boro,51.3544071,-0.1481437
445,Arun District,50.8337114,-0.6428361
446,Newcastle upon Tyne District (B),55.0032054,-1.6124721
447,Newcastle upon Tyne District (B),55.0013223,-1.601024
448,Sunderland District (B),54.872909,-1.39896
449,West Berkshire,51.42098,-1.274554
450,Kingston upon Thames London Boro,51.3877372,-0.2543761
451,South Somerset District,50.874209,-2.9518453
452,Canterbury District (B),51.3680693,1.1144561
453,Canterbury District (B),51.3601963,1.1300702
454,Ashford District (B),51.1673937,0.8970278
455,Wakefield District (B),53.6624171,-1.5463625
456,Stockton-on-Tees (B),54.5598475,-1.3290203
457,Elmbridge District (B),51.372346,-0.340769
458,South Hams District,50.3879627,-3.9242577
459,Croydon London Boro,51.3479269,-0.0895716
460,Lewisham London Boro,51.444895,-0.000565
461,City of Plymouth (B),50.3766745,-4.1276422
462,Buckinghamshire,51.6004001,-0.6383566
463,Thanet District,51.3808169,1.3621629
464,Harrow London Boro,51.5889598,-0.3436821
465,Barnet London Boro,51.619687,-0.183074
466,Merton London Boro,51.3986606,-0.1713631
467,Swale District (B),51.3101401,0.8799525
468,Canterbury District (B),51.3679612,1.1363621
469,West Devon District (B),50.577759,-4.100872
470,Cherwell District,52.0562488,-1.3387529
471,Barnet London Boro,51.619765,-0.283421
472,North Tyneside District (B),55.0437444,-1.4473919
473,Horsham District,51.122416,-0.278958
474,Mid Sussex District,51.0130595,-0.094327
475,Mid Sussex District,50.9964977,-0.1190084
476,Barrow-in-Furness District (B),54.1498344,-3.1749885
477,Mole Valley District,51.3080843,-0.3085488
478,Bracknell Forest (B),51.348243,-0.792437
479,Sutton London Boro,51.3733746,-0.1858277
480,Waverley District (B),51.10693,-0.640014
481,North Somerset,51.4396553,-2.8569296
482,"Bournemouth, Christchurch and Poole",50.7246592,-1.9204989
483,Wokingham (B),51.497794,-0.837178
484,Eastleigh District (B),50.9859606,-1.3844146
485,Hart District,51.2853023,-0.8354723
486,Buckinghamshire,51.6195987,-0.7357472
487,New Forest District,50.7357915,-1.6570671
488,Blackburn with Darwen (B),53.726033,-2.466413
489,Bath and North East Somerset,51.380466,-2.400562
490,Croydon London Boro,51.4024584,-0.101706
491,Croydon London Boro,51.403543,-0.101489
492,Doncaster District (B),53.500247,-1.303318
493,City of Nottingham (B),52.9676639,-1.1272747
494,North Kesteven District,53.195753,-0.686605
495,Braintree District,51.8729303,0.5126718
496,Folkestone and Hythe District,51.1105418,1.1585422
497,"Bournemouth, Christchurch and Poole",50.720337,-1.786392
498,Fylde District (B),53.7451249,-3.0148646
499,Redcar and Cleveland (B),54.5791784,-0.9738379
500,Sedgemoor District,51.1268269,-3.0033732
501,Buckinghamshire,51.6314987,-0.6837193
502,Buckinghamshire,51.7990487,-1.0047634
503,Folkestone and Hythe District,51.0759824,1.1696386
504,Eastleigh District (B),50.9189632,-1.2893277
505,Newham London Boro,51.5216655,0.0463727
506,Birmingham District (B),52.4750506,-1.9460867
507,Wyre Forest District,52.3855376,-2.2360227
508,Torbay (B),50.4796077,-3.5239894
509,Mid Suffolk District,52.373682,1.2917513
510,Hackney London Boro,51.5549508,-0.0526065
511,Northumberland,55.136737,-1.57616
512,Reigate and Banstead District (B),51.207678,-0.1685666
513,Northumberland,54.9571033,-2.0116967
514,Ealing London Boro,51.5110191,-0.3124139
515,Selby District,53.7798613,-1.0742864
516,Sedgemoor District,51.2542254,-2.9597149
517,Horsham District,51.0714577,-0.3260051
518,Walsall District (B),52.649091,-1.923984
519,Thanet District,51.3844954,1.4011025
520,Kingston upon Thames London Boro,51.3935365,-0.2536129
521,Buckinghamshire,51.5475334,-0.6180858
522,Mole Valley District,51.2579073,-0.3180441
523,Swale District (B),51.4078589,0.9066375
524,Bath and North East Somerset,51.380466,-2.400562
525,Canterbury District (B),51.2840588,1.0709343
526,Wandsworth London Boro,51.4583334,-0.1809879
527,Cornwall,50.4574968,-4.4669306
528,Wandsworth London Boro,51.4577351,-0.1833624
529,Bath and North East Somerset,51.380466,-2.400562
530,Tewkesbury District (B),51.943307,-2.019506
531,Carlisle District (B),54.9364021,-2.916321
532,Stockton-on-Tees (B),54.5538533,-1.3471313
533,Reigate and Banstead District (B),51.207678,-0.168567
534,Dover District,51.164863,1.2912989
535,Gosport District (B),50.805623,-1.152791
536,Allerdale District (B),54.8784454,-3.3804835
537,West Suffolk District,52.2568215,0.7097239
538,Enfield London Boro,51.641797,-0.071308
539,Reigate and Banstead District (B),51.1762,-0.162074
540,New Forest District,50.7260599,-1.5935635
541,Gravesham District (B),51.4328224,0.374576
542,Gravesham District (B),51.4144353,0.4546659
543,Dover District,51.1879194,1.3925383
544,Babergh District,52.1643946,0.7123191
545,North Somerset,51.354704,-2.9738065
546,Cornwall,50.4440168,-4.4820051
547,East Riding of Yorkshire,54.0806473,-0.2275191
548,Bath and North East Somerset,51.3865433,-2.3908175
549,Wakefield District (B),53.6593244,-1.5487108
550,Middlesbrough (B),54.5449849,-1.2199129
551,Bath and North East Somerset,51.3803496,-2.3977883
552,Epsom and Ewell District (B),51.3472436,-0.2604242
553,County Durham,54.8609648,-1.7992099
554,Buckinghamshire,51.6510346,-0.6192196
555,Liverpool District (B),53.382609,-2.953917
556,Thanet District,51.3780356,1.3015483
557,North Warwickshire District (B),52.5172023,-1.7488162
558,Sefton District (B),53.6323397,-3.0006315
559,Blackburn with Darwen (B),53.728349,-2.501272
560,The City of Brighton and Hove (B),50.8366457,-0.1678903
561,Thanet District,51.3808683,1.3292067
562,Teignbridge District,50.523519,-3.597452
563,Dudley District (B),52.4675325,-2.036388
564,Brent London Boro,51.5352966,-0.2033031
565,Bath and North East Somerset,51.380466,-2.400562
566,West Northamptonshire,52.2453321,-0.910796
567,Babergh District,52.0587221,1.1198483
568,Buckinghamshire,51.684689,-0.596295
569,Bath and North East Somerset,51.380466,-2.400562
570,Walsall District (B),52.5913496,-1.9733412
571,Thanet District,51.3802558,1.3333451
572,Thanet District,51.385188,1.335067
573,Leeds District (B),53.812894,-1.5098564
574,Sefton District (B),53.6391306,-3.0203192
575,Mid Devon District,50.8218656,-3.4173112
576,Sefton District (B),53.6582832,-2.9884291
577,West Lancashire District (B),53.623643,-2.9949666
578,Leeds District (B),53.7986207,-1.5946304
579,Sefton District (B),53.6552452,-2.996499
580,Liverpool District (B),53.4171054,-2.9152676
581,Sefton District (B),53.6550307,-2.9961948
582,Wirral District (B),53.402686,-3.0639374
583,Newcastle-under-Lyme District (B),53.0328531,-2.2568541
584,Barnsley District (B),53.5205155,-1.3221237
585,Walsall District (B),52.606222,-1.974839
586,Doncaster District (B),53.5758901,-1.0097025
587,Tameside District (B),53.4498451,-2.0798555
588,Sheffield District (B),53.4125778,-1.4824492
589,Knowsley District (B),53.417679,-2.8293794
590,Liverpool District (B),53.4214051,-2.9265254
591,Liverpool District (B),53.387307,-2.8394792
592,Sefton District (B),53.6440291,-3.0118777
593,Wigan District (B),53.549678,-2.696603
594,Knowsley District (B),53.3687169,-2.8467951
595,South Ribble District (B),53.6958685,-2.7293963
596,Sefton District (B),53.6368655,-3.0220002
597,Chorley District (B),53.6682477,-2.7428296
598,Sefton District (B),53.6515778,-2.9900707
599,Sefton District (B),53.6533595,-2.9869771
600,West Lancashire District (B),53.5868092,-2.8650162
601,Lichfield District,52.6379576,-1.9139479
602,Manchester District (B),53.5103297,-2.1899542
603,Middlesbrough (B),54.554608,-1.178848
604,Bradford District (B),53.8112783,-1.753758
605,Leeds District (B),53.8107687,-1.5001314
606,City of Stoke-on-Trent (B),53.0080411,-2.1202929
607,City of Stoke-on-Trent (B),53.0469218,-2.1632254
608,North Northamptonshire,52.4906465,-0.6809323
609,Wirral District (B),53.3822388,-3.0925088
610,Halton (B),53.3670297,-2.7643434
611,Stockton-on-Tees (B),54.6389379,-1.3531289
612,Calderdale District (B),53.7137841,-1.8751904
613,Sheffield District (B),53.3490155,-1.4076959
614,Walsall District (B),52.6041921,-1.9646955
615,Northumberland,55.5523474,-2.0173136
616,City of Leicester (B),52.6385046,-1.1032189
617,Croydon London Boro,51.36183,-0.091263
618,Swale District (B),51.4304603,0.8077147
619,Rochdale District (B),53.5543656,-2.194363
620,City of Wolverhampton District (B),52.5881355,-2.1472352
621,Reigate and Banstead District (B),51.228854,-0.158087
622,Kirklees District (B),53.6351717,-1.7385827
623,South Tyneside District (B),54.9747608,-1.4365283
624,Welwyn Hatfield District (B),51.837927,-0.203276
625,West Oxfordshire District,51.8079925,-1.4011619
626,Sandwell District (B),52.5361943,-2.0647367
627,Wigan District (B),53.5440068,-2.6669922
628,Barnsley District (B),53.5999746,-1.4583162
629,Hounslow London Boro,51.4780167,-0.3403554
630,Hastings District (B),50.8532748,0.547501
631,Gosport District (B),50.794377,-1.134904
632,Dorset,50.599968,-2.474714
633,Teignbridge District,50.5232832,-3.6106208
634,Torbay (B),50.472021,-3.532595
635,Blackpool (B),53.8276704,-3.0508011
636,Basildon District (B),51.6164658,0.5227033
637,East Riding of Yorkshire,54.0871406,-0.2047057
638,Arun District,50.7928875,-0.6525317
639,Sunderland District (B),54.8981167,-1.3919421
640,New Forest District,50.781176,-1.594131
641,Sutton London Boro,51.3576174,-0.1811826
642,Cambridge District (B),52.179598,0.146108
643,Northumberland,55.4077431,-1.6947603
644,Havering London Boro,51.5630462,0.1602001
645,Bracknell Forest (B),51.4203572,-0.7843538
646,Rotherham District (B),53.4854293,-1.3104761
647,Southend-on-Sea (B),51.5422066,0.6847873
648,Lambeth London Boro,51.4310029,-0.1269649
649,Buckinghamshire,51.7363596,-0.858224
650,Burnley District (B),53.7962969,-2.2779153
651,The City of Brighton and Hove (B),50.844832,-0.1497993
652,Wokingham (B),51.3936004,-0.9614524
653,Central Bedfordshire,51.9042516,-0.520342
654,North Northamptonshire,52.399888,-0.719034
655,Wakefield District (B),53.660823,-1.563711
656,Bromley London Boro,51.4023582,0.0417181
657,Cannock Chase District,52.7151147,-2.0225469
658,Isle of Wight,50.691449,-1.2944544
659,Wokingham (B),51.408371,-0.8308024
660,Fenland District,52.535056,0.086184
661,Fenland District,52.533173,0.087982
662,Northumberland,54.9773841,-2.0196394
663,Barnsley District (B),53.567247,-1.4541
664,Rochdale District (B),53.6245861,-2.1426079
665,Uttlesford District,51.903446,0.341693
666,Stevenage District (B),51.9150318,-0.2113761
667,Halton (B),53.3709273,-2.7760313
668,Lancaster District (B),54.079353,-2.8372459
669,Sheffield District (B),53.362851,-1.462935
670,Liverpool District (B),53.382609,-2.953917
671,City of Stoke-on-Trent (B),53.0592632,-2.21749
672,Exeter District (B),50.7176739,-3.5170113
673,Bolton District (B),53.5794767,-2.5010938
674,New Forest District,50.8140393,-1.3416117
675,Broxtowe District (B),53.0070665,-1.2836646
676,Sunderland District (B),54.9077332,-1.5323389
677,Lichfield District,52.7139476,-1.7704567
678,East Suffolk District,52.452495,1.690918
679,Surrey Heath District (B),51.2863552,-0.7258927
680,Vale of White Horse District,51.5952428,-1.4215704
681,Tamworth District (B),52.611014,-1.680341
682,Havering London Boro,51.571989,0.237144
683,Tandridge District,51.146609,-0.017072
684,Bradford District (B),53.7907208,-1.8508277
685,York (B),53.9375058,-1.1173837
686,Tandridge District,51.2835461,-0.0911545
687,"Bournemouth, Christchurch and Poole",50.7420313,-1.7979496
688,Bradford District (B),53.8225506,-1.777511
689,Reigate and Banstead District (B),51.3253072,-0.1756826
690,Merton London Boro,51.4023358,-0.1506772
691,Dorset,50.676056,-2.390697
692,Crawley District (B),51.1075793,-0.1894827
693,Hillingdon London Boro,51.5736918,-0.4260594
694,York (B),54.0076881,-1.078079
695,Ealing London Boro,51.5139305,-0.2917692
696,Barnet London Boro,51.5818108,-0.2010581
697,County Durham,54.6321677,-1.7220617
698,Stafford District (B),52.8808646,-2.0057534
699,Cornwall,50.4166263,-5.0447661
700,Cornwall,50.410778,-5.1060063
701,Tandridge District,51.2442728,0.0057092
702,East Devon District,50.6337028,-3.3285946
703,East Riding of Yorkshire,54.099027,-0.19653
704,Northumberland,55.1647273,-2.5317566
705,City of Kingston upon Hull (B),53.765696,-0.355324
706,City of Kingston upon Hull (B),53.7618957,-0.3497612
707,City of Kingston upon Hull (B),53.725758,-0.418224
708,Havering London Boro,51.6113837,0.2278976
709,Middlesbrough (B),54.55769,-1.237297
710,Solihull District (B),52.4397945,-1.8093053
711,Arun District,50.8080693,-0.4464922
712,North Hertfordshire District,51.9509456,-0.263173
713,Tendring District,51.789601,1.148551
714,Bromley London Boro,51.408674,0.077862
715,Dudley District (B),52.5458658,-2.0938746
716,Sutton London Boro,51.3551887,-0.2046996
717,North Hertfordshire District,51.949479,-0.2690844
718,Dacorum District (B),51.8033732,-0.5527414
719,Central Bedfordshire,51.8840449,-0.5301738
720,Bradford District (B),53.7415074,-1.7688722
721,Birmingham District (B),52.584988,-1.8192
722,The City of Brighton and Hove (B),50.8562129,-0.1533652
723,Milton Keynes (B),52.1517507,-0.7039502
724,Havering London Boro,51.5791132,0.2112134
725,Havering London Boro,51.5700022,0.2082148
726,Reading (B),51.4494219,-0.9986387
727,New Forest District,50.8140393,-1.3416117
728,South Somerset District,50.8677885,-2.9573136
729,Rochford District,51.609378,0.690354
730,Harrogate District (B),53.9892411,-1.5501117
731,East Riding of Yorkshire,53.837515,-0.429641
732,Reading (B),51.4512232,-0.9426315
733,Reading (B),51.451027,-0.98345
734,Wakefield District (B),53.6365403,-1.3812147
735,Manchester District (B),53.458641,-2.2091211
736,Reading (B),51.4491638,-0.9526231
737,Tunbridge Wells District (B),51.118602,0.171375
738,East Devon District,50.622248,-3.3945619
739,Merton London Boro,51.4166437,-0.2254924
740,Sunderland District (B),54.856388,-1.473863
741,Wakefield District (B),53.7177435,-1.4569217
742,"Bournemouth, Christchurch and Poole",50.7249644,-1.8149064
743,"Bournemouth, Christchurch and Poole",50.7613835,-1.8932572
744,Teignbridge District,50.514826,-3.756902
745,Reigate and Banstead District (B),51.2411591,-0.1905753
746,Wirral District (B),53.363624,-3.030554
747,West Berkshire,51.4157309,-1.5208884
748,Horsham District,51.0725368,-0.3261116
749,Swale District (B),51.2633232,0.7581415
750,Bromley London Boro,51.4067017,0.0256635
751,Mid Sussex District,51.0143986,-0.0821823
752,Wokingham (B),51.3755983,-0.8561713
753,Buckinghamshire,51.522636,-0.6592858
754,Stroud District,51.6913012,-2.457061
755,Haringey London Boro,51.589577,-0.077866
756,Cornwall,50.82628,-4.479526
757,Wokingham (B),51.502405,-0.8299478
758,Redbridge London Boro,51.5632727,0.1144373
759,Richmond upon Thames London Boro,51.42213,-0.369641
760,Tunbridge Wells District (B),51.1408079,0.5940698
761,Cherwell District,51.8483191,-1.2423157
762,South Hams District,50.282167,-3.770735
763,Wokingham (B),51.3733758,-0.8606374
764,Chelmsford District (B),51.7114515,0.488162
765,Bedford (B),52.2530648,-0.4761667
766,Worcester District (B),52.1876927,-2.2428713
767,East Staffordshire District (B),52.8041947,-1.6134291
768,East Riding of Yorkshire,53.9347415,-0.7841525
769,Norwich District (B),52.633088,1.304481
770,Arun District,50.8077339,-0.4449421
771,South Oxfordshire District,51.6593154,-1.1871276
772,Sefton District (B),53.650399,-2.9849652
773,Middlesbrough (B),54.56231,-1.2195978
774,Cheltenham District (B),51.883404,-2.0783048
775,Hertsmere District (B),51.636014,-0.331844
776,Southend-on-Sea (B),51.548047,0.72907
777,Hertsmere District (B),51.6527117,-0.38026
778,Hertsmere District (B),51.658661,-0.283788
779,County of Herefordshire,52.2246217,-2.7472033
780,East Suffolk District,52.4880008,1.752248
781,Norwich District (B),52.6415852,1.2968802
782,County Durham,54.7686925,-1.5224378
783,Ealing London Boro,51.5082683,-0.2987826
784,East Lindsey District,53.36089,0.008814
785,Tonbridge and Malling District (B),51.225493,0.289537
786,Cornwall,50.2232311,-5.3850781
787,Guildford District (B),51.288891,-0.5180188
788,Southend-on-Sea (B),51.549747,0.7344512
789,Cornwall,50.4428322,-4.7668967
790,Torbay (B),50.458521,-3.516873
791,Sheffield District (B),53.354257,-1.481026
792,Bracknell Forest (B),51.3611029,-0.8224033
793,Oadby and Wigston District (B),52.575905,-1.080679
794,St. Albans District (B),51.7511173,-0.3098253
795,Sedgemoor District,51.131503,-3.021561
796,Sefton District (B),53.6525096,-2.9939192
797,Guildford District (B),51.2355214,-0.5825766
798,Allerdale District (B),54.8652933,-3.397314
799,Croydon London Boro,51.3211688,-0.1064563
800,Hyndburn District (B),53.7578545,-2.3622496
801,West Suffolk District,52.416389,0.520697
802,West Suffolk District,52.291945,0.692483
803,Leeds District (B),53.7367574,-1.6025652
804,Cheltenham District (B),51.9018436,-2.0792672
805,City of Wolverhampton District (B),52.601887,-2.08707
806,Bedford (B),52.115895,-0.49227
807,Bedford (B),52.1463875,-0.4602266
808,Windsor and Maidenhead (B),51.5508781,-0.7487008
809,Thanet District,51.3554147,1.4399279
810,Fenland District,52.665432,0.1707111
811,Bath and North East Somerset,51.388549,-2.3562117
812,Gedling District (B),52.9661183,-1.0617747
813,Wandsworth London Boro,51.448309,-0.221385
814,Solihull District (B),52.4683056,-1.7529363
815,Luton (B),51.882594,-0.406334
816,Luton (B),51.8827312,-0.4077774
817,Luton (B),51.8686585,-0.4163939
818,Mole Valley District,51.2971952,-0.3566138
819,Three Rivers District,51.618088,-0.383848
820,Watford District (B),51.6435043,-0.3829006
821,Three Rivers District,51.655742,-0.5199338
822,Three Rivers District,51.6461165,-0.4955461
823,Stratford-on-Avon District,52.2714452,-1.896345
824,Buckinghamshire,51.7106004,-0.6241805
825,City of Derby (B),52.9165114,-1.5043269
826,Cheltenham District (B),51.9041,-2.122091
827,Stockton-on-Tees (B),54.5891016,-1.3132507
828,Wokingham (B),51.3936004,-0.9614524
829,Northumberland,55.1416382,-1.5696758
830,St. Albans District (B),51.7245999,-0.3067025
831,Southend-on-Sea (B),51.5346727,0.7410318
832,Hartlepool (B),54.6614205,-1.1924464
833,Telford and Wrekin (B),52.7779002,-2.3748681
834,Tandridge District,51.1569762,-0.005301
835,South Somerset District,50.931676,-2.928983
836,Redcar and Cleveland (B),54.581955,-0.9737836
837,Sefton District (B),53.6362511,-3.0244479
838,The City of Brighton and Hove (B),50.8358361,-0.1684475
839,Lancaster District (B),54.0270421,-2.7940546
840,Shropshire,52.7192571,-2.8014227
841,Sunderland District (B),54.8946044,-1.4160529
842,Buckinghamshire,51.6039672,-0.5619634
843,Leeds District (B),53.825563,-1.515957
844,West Suffolk District,52.080264,0.4806332
845,Kingston upon Thames London Boro,51.383349,-0.302807
846,Kingston upon Thames London Boro,51.380769,-0.289201
847,Kingston upon Thames London Boro,51.380769,-0.289201
848,Bracknell Forest (B),51.4199695,-0.7833861
849,City of Peterborough (B),52.6063948,-0.1845933
850,East Devon District,50.6935587,-3.3616195
851,Elmbridge District (B),51.3660834,-0.4507271
852,Mendip District,51.2556257,-2.7552422
853,St. Albans District (B),51.727346,-0.299714
854,Ipswich District (B),52.0634141,1.1616263
855,Norwich District (B),52.6189911,1.3005005
856,Wandsworth London Boro,51.4252694,-0.1424611
857,St. Albans District (B),51.718812,-0.287308
858,Sheffield District (B),53.3292921,-1.5166451
859,Waltham Forest London Boro,51.568724,0.00205
860,Bromley London Boro,51.3970529,0.0447883
861,Richmond upon Thames London Boro,51.4167489,-0.3672262
862,South Gloucestershire,51.5830798,-2.5581229
863,South Gloucestershire,51.5155662,-2.5431784
864,Canterbury District (B),51.369383,1.10394
865,Mendip District,51.2290144,-2.3293137
866,East Suffolk District,52.3805515,1.4449057
867,Cornwall,50.3622035,-4.4475151
868,Arun District,50.8048621,-0.5415025
869,Eastbourne District (B),50.77245,0.2776804
870,Worthing District (B),50.816214,-0.3762016
871,Wealden District,51.0520749,0.1642378
872,Wealden District,51.068099,0.157905
873,Worthing District (B),50.8132038,-0.3879047
874,County Durham,54.8536108,-1.5721379
875,Ashfield District,53.0398623,-1.2061775
876,Folkestone and Hythe District,50.9836979,0.9354583
877,Tendring District,51.8420274,1.1235451
878,Dorset,50.706837,-2.525958
879,Harrow London Boro,51.5777447,-0.3314906
880,City of Plymouth (B),50.4190651,-4.1462236
881,East Riding of Yorkshire,53.738141,-0.494093
882,New Forest District,50.9002307,-1.5946565
883,South Cambridgeshire District,52.1009106,0.2752041
884,Harrow London Boro,51.5905873,-0.3447755
885,Bexley London Boro,51.4316513,0.0975496
886,Waltham Forest London Boro,51.573726,0.011968
887,Kingston upon Thames London Boro,51.3922814,-0.2533784
888,Rother District,50.844469,0.4147489
889,Birmingham District (B),52.567366,-1.812043
890,Northumberland,55.212374,-1.534952
891,Scarborough District (B),54.2928188,-0.4383268
892,Barnsley District (B),53.5052,-1.4423977
893,Birmingham District (B),52.5401604,-1.8221559
894,County of Herefordshire,52.2234553,-2.7396883
895,County of Herefordshire,52.226692,-2.7524794
896,Doncaster District (B),53.5114743,-1.0893111
897,Newcastle upon Tyne District (B),54.9718608,-1.6470293
898,Worthing District (B),50.8197326,-0.3583639
899,South Norfolk District,52.499233,1.256001
900,Norwich District (B),52.6477943,1.340067
901,Warrington (B),53.378398,-2.461749
902,West Oxfordshire District,51.7265348,-1.5416488
903,West Oxfordshire District,51.789561,-1.476609
904,Croydon London Boro,51.3235532,-0.1351205
905,Bedford (B),52.1375792,-0.457272
906,Newcastle upon Tyne District (B),54.98624,-1.70534
907,Newcastle upon Tyne District (B),54.97939,-1.67328
908,Northumberland,55.4162,-1.709448
909,Northumberland,55.080814,-1.578082
910,Newcastle upon Tyne District (B),54.981766,-1.648028
911,Norwich District (B),52.6154289,1.284038
912,Kingston upon Thames London Boro,51.411904,-0.272265
913,The City of Brighton and Hove (B),50.8276271,-0.1957056
914,Lichfield District,52.6764708,-1.9077411
915,Central Bedfordshire,52.0616169,-0.5504925
916,Birmingham District (B),52.4744509,-1.9335514
917,City of Wolverhampton District (B),52.6007526,-2.1768067
918,North Tyneside District (B),55.0432191,-1.4405917
919,North Tyneside District (B),55.0451799,-1.446887
920,County Durham,54.8552002,-1.8319641
921,Bracknell Forest (B),51.369491,-0.7976104
922,County of Herefordshire,52.049588,-2.6887345
923,Kirklees District (B),53.7122399,-1.7136104
924,Arun District,50.7808638,-0.6864386
925,Sandwell District (B),52.5544601,-2.0186583
926,Walsall District (B),52.5833378,-2.0435687
927,Guildford District (B),51.237272,-0.559938
928,Teignbridge District,50.514826,-3.756902
929,Elmbridge District (B),51.3523907,-0.4279817
930,North Devon District,51.2098278,-4.1249658
931,Elmbridge District (B),51.3529168,-0.4283227
932,Northumberland,54.8983792,-2.2596681
933,Guildford District (B),51.1937767,-0.4137354
934,Forest of Dean District,51.9012949,-2.331536
935,Allerdale District (B),54.70538,-3.483566
936,Milton Keynes (B),52.0082096,-0.7448598
937,Rushcliffe District (B),52.949014,-0.9465
938,West Suffolk District,52.253853,0.4064981
939,City of Nottingham (B),52.9735167,-1.1532299
940,South Somerset District,50.8677885,-2.9573136
941,Southend-on-Sea (B),51.53752,0.724589
942,Greenwich London Boro,51.4906813,0.050214
943,Craven District,53.9429051,-2.0119684
944,Calderdale District (B),53.690847,-1.791349
945,Fareham District (B),50.871103,-1.289558
946,Hammersmith and Fulham London Boro,51.4718219,-0.1912119
947,Rother District,50.840103,0.478828
948,Epsom and Ewell District (B),51.3374033,-0.2537348
949,Waverley District (B),51.204057,-0.799847
950,Cornwall,50.2654935,-5.0443305
951,Redcar and Cleveland (B),54.528826,-1.045657
952,Canterbury District (B),51.3600328,1.038988
953,Mole Valley District,51.2266919,-0.359742
954,Mole Valley District,51.2232858,-0.3369497
955,Wealden District,51.0617114,0.0359381
956,Lewes District,50.8713017,-0.0063076
957,Central Bedfordshire,51.8573082,-0.4309506
958,East Riding of Yorkshire,53.7523484,-0.6067143
959,City of Bristol (B),51.476642,-2.614207
960,North West Leicestershire District,52.7209697,-1.3735052
961,Croydon London Boro,51.3212809,-0.1033804
962,Barnet London Boro,51.6140442,-0.1744403
963,Teignbridge District,50.5102229,-3.6191604
964,East Devon District,50.6830895,-3.2380728
965,Eastbourne District (B),50.7758334,0.2789796
966,Newham London Boro,51.51806,0.028194
967,Newham London Boro,51.551237,-0.001834
968,Waltham Forest London Boro,51.550372,0.000927
969,Waltham Forest London Boro,51.5501647,-0.0022268
970,Redbridge London Boro,51.5607004,0.0938671
971,Newham London Boro,51.5518151,0.0537406
972,Blaby District,52.5674086,-1.1771547
973,Scarborough District (B),54.1814704,-0.3168243
974,Lewisham London Boro,51.4742255,-0.0419064
975,Newcastle upon Tyne District (B),54.973641,-1.648885
976,"Bournemouth, Christchurch and Poole",50.7249948,-1.8352259
977,Eastbourne District (B),50.795454,0.2732076
978,East Suffolk District,52.0947663,1.3086732
979,Hastings District (B),50.857084,0.556179
980,Doncaster District (B),53.601813,-1.191301
981,East Riding of Yorkshire,53.725934,-0.850027
982,East Suffolk District,52.2048199,1.5777704
983,Harrogate District (B),53.9956248,-1.5342095
984,Ealing London Boro,51.5221068,-0.3149302
985,South Somerset District,51.0835874,-2.5196132
986,Barnet London Boro,51.6234949,-0.1666912
987,Hastings District (B),50.860957,0.576939
988,City of Derby (B),52.925121,-1.422774
989,Wakefield District (B),53.587583,-1.326701
990,North East Lincolnshire (B),53.56688,-0.073614
991,Oldham District (B),53.5436643,-2.1324876
992,Richmond upon Thames London Boro,51.4577135,-0.3124949
993,Leeds District (B),53.8853655,-1.6193533
994,County Durham,54.6664923,-1.6733622
995,Kingston upon Thames London Boro,51.399691,-0.265479
996,Buckinghamshire,51.5958055,-0.5519705
997,Cornwall,50.2643977,-5.0596696
998,Staffordshire Moorlands District,53.1060002,-2.1654613
999,Barnet London Boro,51.617599,-0.1791945
1000,Greenwich London Boro,51.4909024,0.0504256
1001,Greenwich London Boro,51.4912119,0.0507276
1002,Epsom and Ewell District (B),51.3274912,-0.2649611
1003,Oxford District (B),51.7442343,-1.2335712
1004,Lewes District,50.779635,0.0959838
1005,Eastbourne District (B),50.7604225,0.2658089
1006,City of Kingston upon Hull (B),53.750651,-0.366248
1007,Bradford District (B),53.8079061,-1.766412
1008,City of Nottingham (B),52.966324,-1.145479
1009,King's Lynn and West Norfolk District (B),52.6043593,0.3647642
1010,King's Lynn and West Norfolk District (B),52.846074,0.505631
1011,City of Portsmouth (B),50.7844259,-1.0632383
1012,Tandridge District,51.28359,-0.1222275
1013,Dorset,50.8164903,-2.1153382
1014,Horsham District,50.918397,-0.245905
1015,Isle of Wight,50.7203272,-1.167915
1016,Winchester District (B),51.0545355,-1.3442976
1017,Wokingham (B),51.498985,-0.86438
1018,Three Rivers District,51.703524,-0.4024697
1019,Hillingdon London Boro,51.518996,-0.467035
1020,Stevenage District (B),51.9156398,-0.2111484
1021,City of Derby (B),52.8796085,-1.445093
1022,Maldon District (B),51.729839,0.8989788
1023,Three Rivers District,51.7027114,-0.4081857
1024,Broxbourne District (B),51.760656,-0.015743
1025,Hounslow London Boro,51.4642538,-0.3851072
1026,Welwyn Hatfield District (B),51.8159408,-0.1972542
1027,Bromley London Boro,51.415204,-0.034233
1028,The City of Brighton and Hove (B),50.8368277,-0.1657386
1029,Tendring District,51.8469703,1.1952916
1030,Wakefield District (B),53.7183853,-1.3408957
1031,Southend-on-Sea (B),51.5367289,0.7214845
1032,Barnet London Boro,51.662765,-0.197937
1033,Dorset,50.7957555,-1.8862126
1034,Barnet London Boro,51.620921,-0.268959
1035,Colchester District (B),51.8746762,0.8594833
1036,Tendring District,51.7850257,1.1456777
1037,Northumberland,55.0761375,-1.4670716
1038,Hastings District (B),50.8631112,0.5540304
1039,Walsall District (B),52.5881068,-2.0594605
1040,Dacorum District (B),51.734091,-0.464975
1041,East Hertfordshire District,51.893537,-0.048788
1042,Luton (B),51.916263,-0.466134
1043,Folkestone and Hythe District,50.9750179,0.963021
1044,King's Lynn and West Norfolk District (B),52.9415488,0.4913072
1045,Chichester District,51.07655,-0.715728
1046,Braintree District,51.8744802,0.5121044
1047,Colchester District (B),51.9029936,0.9463363
1048,Folkestone and Hythe District,50.9745013,0.9535567
1049,City of Bristol (B),51.4562327,-2.5289877
1050,Scarborough District (B),54.2788588,-0.4299308
1051,Hastings District (B),50.8695953,0.5779842
1052,Kingston upon Thames London Boro,51.3841514,-0.2905124
1053,Mid Devon District,50.8605629,-3.392638
1054,Exeter District (B),50.693546,-3.481188
1055,Wakefield District (B),53.7042454,-1.2974759
1056,Wakefield District (B),53.6986131,-1.2930012
1057,Kingston upon Thames London Boro,51.3987832,-0.295516
1058,Hastings District (B),50.8726776,0.6028171
1059,Hastings District (B),50.8624823,0.5505043
1060,Bromley London Boro,51.381814,-0.0182467
1061,Chorley District (B),53.6539502,-2.6378916
1062,Dudley District (B),52.4648632,-2.1495164
1063,Dudley District (B),52.4351649,-2.0799737
1064,Bradford District (B),53.807296,-1.77624
1065,Bradford District (B),53.807296,-1.77624
1066,Liverpool District (B),53.3825971,-2.9475121
1067,Birmingham District (B),52.4931538,-1.8293708
1068,Leeds District (B),53.841561,-1.502658
1069,Stroud District,51.7730772,-2.3669578
1070,Newham London Boro,51.527329,0.031069
1071,Allerdale District (B),54.7175923,-3.4976275
1072,Vale of White Horse District,51.75053,-1.300144
1073,Croydon London Boro,51.321777,-0.1079238
1074,Croydon London Boro,51.3433689,-0.1331532
1075,Warwick District,52.322433,-1.542904
1076,Warwick District,52.322433,-1.542904
1077,Reigate and Banstead District (B),51.169077,-0.168923
1078,York (B),53.9524,-1.053387
1079,South Staffordshire District,52.7190838,-2.0390708
1080,City of Plymouth (B),50.3793906,-4.1384397
1081,Bradford District (B),53.8129989,-1.7940093
1082,Newcastle upon Tyne District (B),54.9732099,-1.6207959
1083,Isle of Wight,50.7076429,-1.2099605
1084,Isle of Wight,50.6263086,-1.1822425
1085,Isle of Wight,50.627064,-1.186089
1086,Isle of Wight,50.6822879,-1.5419127
1087,New Forest District,50.7579551,-1.6621234
1088,Barnet London Boro,51.6131302,-0.1782862
1089,Somerset West and Taunton District,50.9802734,-2.9954743
1090,North Devon District,51.073025,-4.1247579
1091,Torridge District,51.0260622,-4.2376049
1092,East Lindsey District,53.130885,0.337238
1093,Bradford District (B),53.925252,-1.837817
1094,Enfield London Boro,51.620001,-0.110309
1095,Enfield London Boro,51.620001,-0.110309
1096,South Oxfordshire District,51.7073527,-0.904485
1097,Solihull District (B),52.4360874,-1.8073061
1098,Chesterfield District (B),53.2415558,-1.4355945
1099,Birmingham District (B),52.4527502,-1.8472436
1100,Fenland District,52.498151,0.04892
1101,Fenland District,52.498151,0.04892
1102,Chichester District,50.823476,-0.7898659
1103,North East Lincolnshire (B),53.556875,-0.031258
1104,Redcar and Cleveland (B),54.5381426,-1.0497825
1105,Redcar and Cleveland (B),54.5396124,-1.0515568
1106,Redcar and Cleveland (B),54.536701,-1.050622
1107,Redcar and Cleveland (B),54.5379961,-1.0505896
1108,East Riding of Yorkshire,53.725401,-0.052529
1109,Newham London Boro,51.5288567,0.0655242
1110,Greenwich London Boro,51.469488,0.018955
1111,North Northamptonshire,52.3668215,-0.6812158
1112,Havant District (B),50.86114,-1.047252
1113,Havant District (B),50.886183,-1.032909
1114,Havant District (B),50.791519,-0.990782
1115,East Hampshire District,50.881929,-0.965702
1116,Selby District,53.716179,-0.905481
1117,Waltham Forest London Boro,51.586724,-0.014135
1118,Torbay (B),50.482915,-3.524885
1119,Wiltshire,51.3467123,-1.9837692
1120,Wiltshire,51.0994837,-1.790885
1121,Wiltshire,51.0994837,-1.790885
1122,Wiltshire,51.4587996,-2.1061009
1123,Wiltshire,51.455904,-2.146978
1124,Winchester District (B),51.060979,-1.317839
1125,Winchester District (B),51.064017,-1.308532
1126,Doncaster District (B),53.519884,-1.171896
1127,Shropshire,52.8589587,-3.0683558
1128,Worcester District (B),52.1837636,-2.2177117
1129,Sunderland District (B),54.9030306,-1.4481033
1130,Mansfield District,53.1603518,-1.2071726
1131,Sandwell District (B),52.5438954,-1.9462682
1132,Northumberland,54.961829,-1.852333
1133,Telford and Wrekin (B),52.7467948,-2.4866094
1134,East Suffolk District,51.9559938,1.3404808
1135,County Durham,54.78468,-1.41207
1136,"Bournemouth, Christchurch and Poole",50.740857,-1.69625
1137,Enfield London Boro,51.6592382,-0.0316854
1138,Scarborough District (B),54.276571,-0.426808
1139,Darlington (B),54.522302,-1.534264
1140,Adur District,50.8252338,-0.3166721
1141,Cotswold District,51.712785,-1.96481
1142,East Lindsey District,53.1663482,0.1194167
1143,Slough (B),51.5284009,-0.6530906
1144,Havering London Boro,51.5460588,0.2478638
1145,City of Plymouth (B),50.3843265,-4.1598752
1146,Somerset West and Taunton District,51.042222,-3.314746
1147,Torridge District,51.017192,-4.211784
1148,Ipswich District (B),52.0388573,1.2013548
1149,South Kesteven District,52.6543741,-0.4605064
1150,Enfield London Boro,51.6395773,-0.1282538
1151,South Gloucestershire,51.482461,-2.512874
1152,Sunderland District (B),54.809371,-1.439734
1153,Cornwall,50.412394,-5.083521
1154,Solihull District (B),52.436311,-1.806364
1155,Gosport District (B),50.7839401,-1.1427569
1156,Hillingdon London Boro,51.521721,-0.423579
1157,Bedford (B),52.1349854,-0.446805
1158,Torridge District,51.0307145,-4.2086543
1159,City of Nottingham (B),52.9822969,-1.1958681
1160,Cornwall,50.4107946,-5.1050501
1161,City of Derby (B),52.882888,-1.502095
1162,Sedgemoor District,51.0687621,-3.0394961
1163,Torbay (B),50.485469,-3.526222
1164,County Durham,54.83846,-1.869494
1165,Rushcliffe District (B),52.848357,-1.142483
1166,North Hertfordshire District,51.8424708,-0.2015949
1167,City of Westminster London Boro,51.4879709,-0.1342963
1168,Slough (B),51.5190448,-0.5892139
1169,South Gloucestershire,51.437565,-2.5182421
1170,City of Bristol (B),51.4666399,-2.5991869
1171,Newham London Boro,51.5409928,0.0224065
1172,Birmingham District (B),52.4229086,-1.8835799
1173,Amber Valley District (B),53.0688642,-1.35868
1174,Manchester District (B),53.5387641,-2.2190071
1175,West Northamptonshire,52.246629,-0.885029
1176,East Suffolk District,52.5302228,1.7029014
1177,North Devon District,51.203614,-4.128387
1178,Exeter District (B),50.731567,-3.524006
1179,Lewisham London Boro,51.4405083,0.004064
1180,Lewisham London Boro,51.4438421,0.0015766
1181,Brent London Boro,51.550341,-0.299276
1182,Dudley District (B),52.4981,-2.1337355
1183,Teignbridge District,50.55374,-3.491525
1184,Haringey London Boro,51.6027019,-0.0993014
1185,Brent London Boro,51.550141,-0.279999
1186,Central Bedfordshire,51.87153,-0.555744
1187,Hertsmere District (B),51.6829306,-0.1844975
1188,North Northamptonshire,52.3123637,-0.5930871
1189,North Northamptonshire,52.313445,-0.592554
1190,Ipswich District (B),52.0664383,1.1915517
1191,Rotherham District (B),53.4534439,-1.3717418
1192,Northumberland,55.7512258,-2.0154274
1193,Wandsworth London Boro,51.4741542,-0.1550629
1194,Uttlesford District,51.87059,0.368414
1195,South Ribble District (B),53.7235666,-2.6785073
1196,East Riding of Yorkshire,53.707808,-0.886787
1197,Doncaster District (B),53.4755463,-1.1955128
1198,City of Derby (B),52.8960047,-1.4571028
1199,East Devon District,50.6841101,-3.233117
1200,Sedgemoor District,51.2749164,-2.7767901
1201,East Riding of Yorkshire,53.713774,-0.879765
1202,Rotherham District (B),53.4338637,-1.3411588
1203,Rotherham District (B),53.434623,-1.3386635
1204,Rotherham District (B),53.4356162,-1.3378503
1205,Boston District (B),52.930739,-0.058611
1206,Birmingham District (B),52.5438608,-1.9313016
1207,North Northamptonshire,52.4098136,-0.7236862
1208,South Norfolk District,52.375882,1.105457
1209,Runnymede District (B),51.3594875,-0.5135442
1210,Great Yarmouth District (B),52.606266,1.733757
1211,Broadland District,52.7536747,1.3009867
1212,Babergh District,52.0365076,0.7295988
1213,Darlington (B),54.5260658,-1.5627866
1214,Chichester District,50.7636377,-0.8669438
1215,North Hertfordshire District,51.8828803,-0.1896114
1216,Wirral District (B),53.3947773,-3.0526316
1217,Broadland District,52.794139,1.251758
1218,Great Yarmouth District (B),52.606936,1.734169
1219,Bromley London Boro,51.4095389,0.0833654
1220,Mansfield District,53.1521793,-1.1909192
1221,East Riding of Yorkshire,53.723542,-0.4316395
1222,North Somerset,51.4495367,-2.8470987
1223,Torbay (B),50.432041,-3.568155
1224,Bradford District (B),53.809368,-1.764627
1225,Buckinghamshire,51.5487146,-0.6768791
1226,Kirklees District (B),53.6864906,-1.6429601
1227,Craven District,53.8908843,-1.9936643
1228,Leeds District (B),53.8304534,-1.5292817
1229,Waltham Forest London Boro,51.5732496,-0.0187199
1230,North Tyneside District (B),55.0425882,-1.4421341
1231,Ryedale District,54.131683,-0.782537
1232,Southend-on-Sea (B),51.5470948,0.6802574
1233,Hambleton District,54.290699,-1.5926455
1234,Harrogate District (B),53.9993102,-1.2974691
1235,Redcar and Cleveland (B),54.5858613,-0.9765946
1236,Huntingdonshire District,52.2514485,-0.2621886
1237,Merton London Boro,51.417612,-0.194561
1238,Thanet District,51.3774712,1.3138828
1239,"Bournemouth, Christchurch and Poole",50.7224709,-1.8077518
1240,Wiltshire,51.287356,-1.652188
1241,North Somerset,51.3535586,-2.9687991
1242,North Somerset,51.3316797,-2.9808543
1243,Slough (B),51.5063846,-0.5840429
1244,Slough (B),51.5150396,-0.640687
1245,Buckinghamshire,51.5314886,-0.5823992
1246,Buckinghamshire,51.821693,-0.804343
1247,Slough (B),51.50247,-0.5867721
1248,Buckinghamshire,51.7174361,-0.6075571
1249,Hastings District (B),50.862738,0.542333
1250,Hastings District (B),50.8545451,0.5642377
1251,City of Plymouth (B),50.3804364,-4.1706845
1252,City of Plymouth (B),50.3789704,-4.1245662
1253,Bradford District (B),53.8969749,-1.9718566
1254,Welwyn Hatfield District (B),51.7571077,-0.2497317
1255,Hinckley and Bosworth District (B),52.5741328,-1.3155872
1256,Rushcliffe District (B),52.9316225,-1.1367922
1257,Sutton London Boro,51.3586466,-0.1558008
1258,Fareham District (B),50.855316,-1.17789
1259,Chichester District,50.7340196,-0.7852286
1260,East Devon District,50.821689,-3.198045
1261,Hillingdon London Boro,51.505328,-0.459496
1262,Rushcliffe District (B),52.949741,-1.035595
1263,Wirral District (B),53.3981411,-3.1711239
1264,Lambeth London Boro,51.4714975,-0.1074234
1265,Canterbury District (B),51.3507471,1.0210505
1266,Lewisham London Boro,51.4742309,-0.0476229
1267,Canterbury District (B),51.3582691,1.1405698
1268,"Bournemouth, Christchurch and Poole",50.724861,-1.835651
1269,Dorset,50.8196373,-2.7953042
1270,Enfield London Boro,51.621464,-0.108991
1271,Birmingham District (B),52.4308764,-1.9581807
1272,Dacorum District (B),51.7102758,-0.4469413
1273,Cornwall,50.4580289,-4.7503656
1274,Enfield London Boro,51.6408149,-0.0719246
1275,Lewes District,50.766556,0.111552
1276,North Northamptonshire,52.4438568,-0.8220737
1277,North Northamptonshire,52.406246,-0.726641
1278,Liverpool District (B),53.4159631,-2.943078
1279,Blackburn with Darwen (B),53.703432,-2.4660292
1280,Carlisle District (B),54.8941833,-2.9231965
1281,Hertsmere District (B),51.6897661,-0.320326
1282,Blackpool (B),53.8155069,-3.0376469
1283,Bromley London Boro,51.439985,0.033928
1284,City of Wolverhampton District (B),52.6181713,-2.1311329
1285,Buckinghamshire,51.5870941,-0.6834583
1286,Arun District,50.8369601,-0.6461219
1287,Wakefield District (B),53.6713907,-1.4886111
1288,Scarborough District (B),54.489221,-0.6273969
1289,Buckinghamshire,51.5317981,-0.5916743
1290,Charnwood District (B),52.7603158,-1.2916936
1291,Charnwood District (B),52.768967,-1.298175
1292,Woking District (B),51.3217393,-0.5476013
1293,Richmondshire District,54.3765844,-1.7089181
1294,Solihull District (B),52.3887435,-1.7403028
1295,Wakefield District (B),53.6756218,-1.358168
1296,Hillingdon London Boro,51.5949466,-0.4205172
1297,Sheffield District (B),53.3281436,-1.3470973
1298,New Forest District,50.9442532,-1.5141846
1299,Maldon District (B),51.783605,0.682252
1300,Wakefield District (B),53.6858561,-1.3885964
1301,Torbay (B),50.467414,-3.523837
1302,South Kesteven District,52.8944356,-0.3405597
1303,Enfield London Boro,51.627114,-0.1136541
1304,Windsor and Maidenhead (B),51.5401922,-0.7003853
1305,South Lakeland District,54.2224153,-2.7705523
1306,Gloucester District (B),51.8717147,-2.2344968
1307,Gloucester District (B),51.871355,-2.234698
1308,Cheshire West and Chester (B),53.2900659,-3.0774445
1309,Leeds District (B),53.798509,-1.606263
1310,Shropshire,52.3736349,-2.7098065
1311,Blackpool (B),53.833645,-3.0449333
1312,Bedford (B),52.144288,-0.46841
1313,Luton (B),51.8705737,-0.4251
1314,Fylde District (B),53.738959,-2.959845
1315,Breckland District,52.6596038,1.0975453
1316,Northumberland,55.758801,-1.995528
1317,Southend-on-Sea (B),51.537011,0.6901635
1318,Cornwall,50.267904,-4.909612
1319,Croydon London Boro,51.3329795,-0.1386283
1320,South Cambridgeshire District,52.146269,-0.194487
1321,Salford District (B),53.5030009,-2.2668252
1322,Salford District (B),53.5030009,-2.2668252
1323,Sheffield District (B),53.374618,-1.5111722
1324,Blaby District,52.6214576,-1.2277269
1325,Lewisham London Boro,51.4345325,-0.0403382
1326,Derbyshire Dales District,53.2440013,-1.6981617
1327,Gloucester District (B),51.845915,-2.254119
1328,Dorset,50.7302234,-2.4541993
1329,Redbridge London Boro,51.5656959,0.0637017
1330,Bromley London Boro,51.405104,-0.058448
1331,Great Yarmouth District (B),52.6737283,1.6903862
1332,North Tyneside District (B),55.0443183,-1.6223406
1333,Middlesbrough (B),54.5197186,-1.2506429
1334,Somerset West and Taunton District,51.1598641,-3.3257819
1335,Stockton-on-Tees (B),54.568905,-1.353464
1336,Worthing District (B),50.8110848,-0.3836795
1337,North Hertfordshire District,51.9328615,-0.2297371
1338,The City of Brighton and Hove (B),50.8081139,-0.0683724
1339,Gosport District (B),50.8117448,-1.1917842
1340,Newcastle upon Tyne District (B),54.985229,-1.630949
1341,Tendring District,51.7847538,1.1427294
1342,City of Nottingham (B),52.962032,-1.110863
1343,City of Kingston upon Hull (B),53.774473,-0.3868567
1344,Sunderland District (B),54.906187,-1.402831
1345,Brent London Boro,51.5583533,-0.3060893
1346,Barnsley District (B),53.5403116,-1.3773076
1347,Bradford District (B),53.833112,-1.782636
1348,Torbay (B),50.474371,-3.524159
1349,Buckinghamshire,51.8088766,-0.8022597
1350,Hertsmere District (B),51.6484676,-0.3659505
1351,Redbridge London Boro,51.5708153,0.023802
1352,Tower Hamlets London Boro,51.5172937,-0.0404345
1353,City of Stoke-on-Trent (B),53.0714667,-2.1985265
1354,Redditch District (B),52.2961007,-1.9549695
1355,City of Wolverhampton District (B),52.5804234,-2.1601666
1356,Lewes District,50.7886477,0.0184367
1357,Tamworth District (B),52.6446352,-1.6959607
1358,Lichfield District,52.6808232,-1.9096105
1359,Birmingham District (B),52.551307,-1.8265878
1360,Sheffield District (B),53.3465382,-1.469299
1361,Three Rivers District,51.6398175,-0.4756669
1362,Waltham Forest London Boro,51.573157,0.01171
1363,Waltham Forest London Boro,51.573726,0.011968
1364,Staffordshire Moorlands District,53.110691,-2.172665
1365,The City of Brighton and Hove (B),50.830841,-0.190143
1366,Cheshire East (B),53.103655,-2.447046
1367,South Cambridgeshire District,52.2524565,0.0751239
1368,Warrington (B),53.4320502,-2.5988236
1369,Sandwell District (B),52.4981991,-2.0296228
1370,Arun District,50.8333216,-0.6425634
1371,Welwyn Hatfield District (B),51.8382896,-0.2027776
1372,Welwyn Hatfield District (B),51.8379199,-0.2033003
1373,West Northamptonshire,52.243858,-0.869998
1374,West Northamptonshire,52.243858,-0.869998
1375,Haringey London Boro,51.591492,-0.079659
1376,Bedford (B),52.0804587,-0.449158
1377,South Derbyshire District,52.8745746,-1.5452323
1378,City of Bristol (B),51.427791,-2.550666
1379,Bath and North East Somerset,51.4071032,-2.55752
1380,Mendip District,51.276411,-2.575662
1381,Blackburn with Darwen (B),53.7314725,-2.4959338
1382,Telford and Wrekin (B),52.8183665,-2.4267647
1383,Test Valley District,50.970263,-1.584576
1384,City of Portsmouth (B),50.8448359,-1.0661769
1385,Central Bedfordshire,52.0330679,-0.2864537
1386,Mendip District,51.256897,-2.620043
1387,Mendip District,51.2547969,-2.751288
1388,Cornwall,50.2643977,-5.0596696
1389,South Somerset District,51.0899587,-2.5124169
1390,Barnsley District (B),53.544938,-1.4493687
1391,Barnsley District (B),53.544938,-1.4493687
1392,Newcastle upon Tyne District (B),54.9732099,-1.6207959
1393,East Riding of Yorkshire,53.9093835,-0.1684466
1394,Dudley District (B),52.5375279,-2.1186698
1395,Bradford District (B),53.797089,-1.742091
1396,New Forest District,50.7858076,-1.7262625
1397,East Devon District,50.7450496,-3.0307076
1398,Cornwall,50.342366,-5.11006
1399,Haringey London Boro,51.597736,-0.072161
1400,East Riding of Yorkshire,54.0145846,-0.4406918
1401,North Warwickshire District (B),52.534431,-1.526771
1402,Kingston upon Thames London Boro,51.412131,-0.296996
1403,East Suffolk District,52.4603364,1.7382151
1404,County of Herefordshire,52.039187,-2.6434684
1405,East Suffolk District,52.4628754,1.7361479
1406,East Riding of Yorkshire,53.782782,-0.412545
1407,Telford and Wrekin (B),52.7114508,-2.5498271
1408,Blackpool (B),53.7781381,-3.0515054
1409,Fylde District (B),53.7376054,-2.9875154
1410,City of Leicester (B),52.6310079,-1.1572424
1411,Sefton District (B),53.6330987,-3.0189746
1412,Scarborough District (B),54.2757606,-0.404123
1413,Horsham District,51.0718902,-0.324412
1414,Newcastle upon Tyne District (B),55.0015164,-1.6250388
1415,North Tyneside District (B),55.0415597,-1.4491433
1416,Sutton London Boro,51.356221,-0.1963864
1417,Epsom and Ewell District (B),51.3445275,-0.2333602
1418,King's Lynn and West Norfolk District (B),52.942926,0.488865
1419,Torbay (B),50.474463,-3.522598
1420,Wiltshire,51.446123,-2.103073
1421,City of Derby (B),52.910333,-1.495862
1422,Central Bedfordshire,51.9185353,-0.6723323
1423,Stockport District (B),53.419753,-2.189896
1424,Rossendale District (B),53.7042634,-2.1991288
1425,Redcar and Cleveland (B),54.5334582,-1.0517598
1426,Bradford District (B),53.9223454,-1.8104653
1427,Torbay (B),50.474213,-3.519024
1428,West Oxfordshire District,51.9357252,-1.543027
1429,Dorset,50.710689,-2.435908
1430,Scarborough District (B),54.274853,-0.414325
1431,Bromsgrove District,52.4046256,-2.1130646
1432,Birmingham District (B),52.4498286,-1.8276693
1433,Birmingham District (B),52.5314512,-1.8296649
1434,York (B),53.9657401,-1.0767945
1435,City of Leicester (B),52.6049144,-1.1428292
1436,Worthing District (B),50.8151676,-0.3592712
1437,West Oxfordshire District,51.728755,-1.446339
1438,Stockton-on-Tees (B),54.5213745,-1.353603
1439,Forest of Dean District,51.871506,-2.39842
1440,Leeds District (B),53.8461,-1.584903
1441,Nuneaton and Bedworth District (B),52.4847717,-1.515936
1442,Shropshire,52.8630368,-2.7218546
1443,Warwick District,52.3025644,-1.5301242
1444,East Lindsey District,53.3392965,0.2539399
1445,Barnsley District (B),53.550299,-1.3422654
1446,Carlisle District (B),54.932674,-2.940676
1447,Gloucester District (B),51.8471292,-2.2410902
1448,Gloucester District (B),51.8699349,-2.2342842
1449,Tewkesbury District (B),51.9001015,-2.1823231
1450,Lewisham London Boro,51.4354449,-0.0106892
1451,Mole Valley District,51.2285569,-0.3319903
1452,Telford and Wrekin (B),52.6967144,-2.4499473
1453,Chorley District (B),53.6536393,-2.6405649
1454,Bradford District (B),53.7907208,-1.8508277
1455,East Hampshire District,51.0998361,-1.0217424
1456,Shropshire,52.8566627,-3.0588519
1457,Ashfield District,53.1063776,-1.1775582
1458,Blackburn with Darwen (B),53.7269334,-2.4912485
1459,Havant District (B),50.8872519,-1.0260286
1460,City of Kingston upon Hull (B),53.8019293,-0.3312886
1461,Winchester District (B),51.029585,-1.329078
1462,Brentwood District (B),51.66373,0.255298
1463,Brentwood District (B),51.6627423,0.2540652
1464,Dudley District (B),52.4550052,-2.1533973
1465,Arun District,50.8034103,-0.5077712
1466,Swindon (B),51.5830713,-1.8089532
1467,North Devon District,51.2069323,-4.1209813
1468,Barnet London Boro,51.589822,-0.245562
1469,Dudley District (B),52.4544235,-2.0617026
1470,Dudley District (B),52.5103978,-2.1077964
1471,Dudley District (B),52.5239205,-2.1242338
1472,City of Stoke-on-Trent (B),53.0088866,-2.122416
1473,Broadland District,52.6858089,1.3976705
1474,Sedgemoor District,51.244926,-2.99342
1475,City of Plymouth (B),50.3874286,-4.0486952
1476,Birmingham District (B),52.5881042,-1.8487817
1477,York (B),53.9381447,-1.0701603
1478,Wyre District (B),53.8976944,-2.7733746
1479,Redcar and Cleveland (B),54.6167641,-1.0779012
1480,East Hampshire District,51.146402,-0.973455
1481,New Forest District,50.907406,-1.49128
1482,Eastleigh District (B),50.92596,-1.329633
1483,City of Peterborough (B),52.672107,-0.312118
1484,County Durham,54.6538099,-1.625959
1485,Nuneaton and Bedworth District (B),52.5267504,-1.4607604
1486,Nuneaton and Bedworth District (B),52.520179,-1.470715
1487,Nuneaton and Bedworth District (B),52.524263,-1.479524
1488,Nuneaton and Bedworth District (B),52.5239597,-1.4800289
1489,Warwick District,52.291342,-1.5444631
1490,Stratford-on-Avon District,52.2120693,-1.685748
1491,Stratford-on-Avon District,52.181909,-1.4681713
1492,Tendring District,51.8548144,1.0596969
1493,Kirklees District (B),53.646807,-1.797966
1494,City of Kingston upon Hull (B),53.761154,-0.3734383
1495,East Riding of Yorkshire,53.7405646,-0.4362521
1496,North Norfolk District,52.943812,1.2150997
1497,Cornwall,50.1158772,-5.5349644
1498,Cornwall,50.2613675,-5.2870506
1499,Cornwall,50.2318644,-5.242114
1500,Wirral District (B),53.4023165,-3.1135556
1501,Bedford (B),52.1407818,-0.4778781
1502,Leeds District (B),53.7927997,-1.3820462
1503,Leeds District (B),53.7927571,-1.3824871
1504,High Peak District (B),53.4627583,-1.9767518
1505,North Northamptonshire,52.268905,-0.756856
1506,Brent London Boro,51.5303747,-0.2676682
1507,North Lincolnshire (B),53.599225,-0.4380616
1508,Torridge District,50.868936,-4.15945
1509,Solihull District (B),52.432984,-1.800568
1510,Colchester District (B),51.8459636,0.8108481
1511,Colchester District (B),51.879739,0.780391
1512,City of Portsmouth (B),50.783285,-1.067885
1513,Birmingham District (B),52.453922,-1.8297135
1514,Selby District,53.8338455,-1.0579828
1515,Sedgemoor District,51.246174,-3.001026
1516,Cornwall,50.178587,-5.312316
1517,Salford District (B),53.484277,-2.353569
1518,Isle of Wight,50.6980085,-1.2965507
1519,Northumberland,54.9708301,-2.0991466
1520,Northumberland,54.969998,-2.467667
1521,Northumberland,54.957113,-1.86783
1522,Sefton District (B),53.6476309,-3.0097601
1523,East Riding of Yorkshire,53.9154896,-0.1659976
1524,Arun District,50.7943367,-0.6256588
1525,East Lindsey District,53.153343,-0.202997
1526,South Kesteven District,52.9194092,-0.633984
1527,Kirklees District (B),53.6931853,-1.709999
1528,City of Stoke-on-Trent (B),53.0592632,-2.21749
1529,Sunderland District (B),54.9233956,-1.3956823
1530,East Riding of Yorkshire,53.7066551,-0.8826962
1531,City of Portsmouth (B),50.7829006,-1.067042
1532,Carlisle District (B),54.9393735,-2.7415939
1533,Leeds District (B),53.7497018,-1.605749
1534,South Derbyshire District,52.773635,-1.5391841
1535,Kirklees District (B),53.676623,-1.686149
1536,Kirklees District (B),53.5794561,-1.7851063
1537,Wakefield District (B),53.5886549,-1.3247958
1538,Barnsley District (B),53.5365655,-1.4641054
1539,Calderdale District (B),53.747133,-1.887162
1540,County of Herefordshire,51.9607992,-2.9173614
1541,Braintree District,51.937511,0.621355
1542,Central Bedfordshire,52.01282,-0.629932
1543,Barnet London Boro,51.5665401,-0.1961833
1544,City of Portsmouth (B),50.789077,-1.090796
1545,Arun District,50.7841823,-0.6928427
1546,Bracknell Forest (B),51.3710317,-0.7961838
1547,Dover District,51.2215577,1.37355
1548,West Oxfordshire District,51.9150261,-1.453853
1549,Maidstone District (B),51.2747927,0.5072812
1550,Sutton London Boro,51.3334732,-0.218956
1551,Stockton-on-Tees (B),54.5805781,-1.3109958
1552,Bradford District (B),53.8035418,-1.7878606
1553,Luton (B),51.8956206,-0.4580732
1554,Sedgemoor District,51.2466132,-2.9980411
1555,Braintree District,51.9745777,0.594294
1556,County of Herefordshire,51.916467,-2.580805
1557,Barnsley District (B),53.5517348,-1.5036671
1558,Barnsley District (B),53.552085,-1.503923
1559,Redbridge London Boro,51.5799693,0.0217406
1560,East Suffolk District,51.9628595,1.3571242
1561,Eastbourne District (B),50.7762485,0.2822182
1562,Eastbourne District (B),50.758049,0.264376
1563,Rugby District (B),52.396145,-1.240275
1564,East Hampshire District,51.0511566,-0.8869224
1565,Dorset,50.7345827,-2.7683958
1566,Tendring District,51.7922904,1.1514776
1567,"Bournemouth, Christchurch and Poole",50.722427,-1.813886
1568,"Bournemouth, Christchurch and Poole",50.7372574,-1.7835442
1569,Eastbourne District (B),50.7552122,0.2705764
1570,West Berkshire,51.4786234,-1.0445256
1571,West Berkshire,51.4787913,-1.0441621
1572,West Berkshire,51.4787171,-1.04389
1573,West Berkshire,51.4784652,-1.0438665
1574,West Berkshire,51.4784501,-1.0442268
1575,West Berkshire,51.4781583,-1.0448233
1576,West Berkshire,51.4781433,-1.045198
1577,West Berkshire,51.4783749,-1.0450398
1578,Carlisle District (B),54.8855718,-2.9510341
1579,Luton (B),51.887094,-0.423941
1580,Swale District (B),51.3040896,0.8859698
1581,Rother District,50.8374378,0.4577074
1582,St. Albans District (B),51.7373393,-0.3424916
1583,Winchester District (B),51.0570805,-1.3316341
1584,South Norfolk District,52.5637629,1.3535095
1585,Lewisham London Boro,51.463778,0.002694
1586,Lewisham London Boro,51.461225,-0.000499
1587,Middlesbrough (B),54.557062,-1.221028
1588,Hackney London Boro,51.5642977,-0.0555552
1589,Torbay (B),50.480396,-3.523875
1590,City of Bristol (B),51.4509868,-2.8517307
1591,Salford District (B),53.4925928,-2.3111937
1592,Broadland District,52.6328652,1.4405267
1593,City of Portsmouth (B),50.8464431,-1.0569262
1594,Cheshire East (B),53.1485152,-2.3615681
1595,Greenwich London Boro,51.494403,0.07941
1596,East Riding of Yorkshire,53.7575966,-0.4438188
1597,Scarborough District (B),54.2731405,-0.3990333
1598,Wakefield District (B),53.7005104,-1.4810048
1599,York (B),53.954724,-1.105825
1600,Salford District (B),53.496719,-2.3075157
1601,City of Portsmouth (B),50.7866007,-1.0937944
1602,Dorset,50.6267604,-2.45814
1603,"Bournemouth, Christchurch and Poole",50.7226268,-1.7937547
1604,Solihull District (B),52.4060782,-1.8184466
1605,Barnet London Boro,51.616887,-0.168351
1606,Sheffield District (B),53.4136825,-1.4627931
1607,Barnsley District (B),53.5022155,-1.4537005
1608,Sandwell District (B),52.500377,-1.983973
1609,Sandwell District (B),52.5151571,-1.9858983
1610,Winchester District (B),51.1003588,-1.1623988
1611,Blackburn with Darwen (B),53.7433007,-2.4503075
1612,Liverpool District (B),53.4260283,-2.9422323
1613,Bromley London Boro,51.4091632,0.0341125
1614,Reigate and Banstead District (B),51.234122,-0.1885308
1615,Worthing District (B),50.8128431,-0.3828575
1616,Arun District,50.7875842,-0.6535354
1617,Torridge District,50.8976312,-4.3815663
1618,Redbridge London Boro,51.5611166,0.1008041
1619,North Somerset,51.3472332,-2.9702299
1620,North Somerset,51.3388929,-2.9785104
1621,County of Herefordshire,51.912687,-2.585133
1622,Arun District,50.7915883,-0.6749295
1623,North Tyneside District (B),55.011966,-1.566826
1624,Birmingham District (B),52.5721837,-1.8021333
1625,East Hertfordshire District,51.8933037,-0.0468531
1626,Sheffield District (B),53.3645032,-1.4857475
1627,Redbridge London Boro,51.5612238,0.0628355
1628,Newark and Sherwood District,53.0047281,-0.9788307
1629,Doncaster District (B),53.4849736,-1.228532
1630,Cornwall,50.4175423,-5.0602414
1631,Teignbridge District,50.5792111,-3.466595
1632,Somerset West and Taunton District,51.0050776,-3.1136118
1633,Cornwall,50.8272168,-4.4802854
1634,East Riding of Yorkshire,53.7144786,-0.1504056
1635,Northumberland,55.179911,-1.535676
1636,City of Nottingham (B),52.976179,-1.152406
1637,Scarborough District (B),54.295728,-0.417506
1638,Buckinghamshire,51.5624323,-0.7096337
1639,Reigate and Banstead District (B),51.2757497,-0.2452043
1640,Windsor and Maidenhead (B),51.4832716,-0.7281428
1641,Three Rivers District,51.6962192,-0.4309138
1642,Wiltshire,51.4657486,-2.1169856
1643,North Northamptonshire,52.290806,-0.595559
1644,Bedford (B),52.141955,-0.483396
1645,East Devon District,50.6984101,-3.2207258
1646,Medway (B),51.3759995,0.5221654
1647,North Devon District,51.071143,-4.048683
1648,Isle of Wight,50.7215728,-1.1498449
1649,Shropshire,52.536941,-2.794249
1650,City of Stoke-on-Trent (B),52.980254,-2.1350883
1651,North Tyneside District (B),55.000028,-1.476334
1652,Broadland District,52.7018415,1.402174
1653,East Hampshire District,51.090716,-0.80025
1654,The City of Brighton and Hove (B),50.830303,-0.2007
1655,Croydon London Boro,51.3415364,-0.1225883
1656,Sefton District (B),53.6600249,-2.9737839
1657,Swindon (B),51.5100952,-1.7340701
1658,Eastbourne District (B),50.7774518,0.2730153
1659,"Bournemouth, Christchurch and Poole",50.7295186,-1.8798835
1660,North Somerset,51.34233,-2.9750086
1661,North Somerset,51.3425535,-2.9751713
1662,Sheffield District (B),53.3780882,-1.5026092
1663,Ealing London Boro,51.5069111,-0.3143957
1664,Sheffield District (B),53.3747349,-1.5228522
1665,Dover District,51.22075,1.39726
1666,Dover District,51.221749,1.386404
1667,Folkestone and Hythe District,51.028936,0.9893105
1668,Blackpool (B),53.854838,-3.045157
1669,Doncaster District (B),53.530303,-1.120086
1670,Epping Forest District,51.62326,0.029024
1671,Barnet London Boro,51.616648,-0.174976
1672,Barnet London Boro,51.6047939,-0.196375
1673,Coventry District (B),52.417555,-1.514261
1674,Gateshead District (B),54.95538,-1.6118601
1675,Sunderland District (B),54.9112323,-1.517106
1676,Darlington (B),54.5215678,-1.5373004
1677,North Tyneside District (B),55.0214023,-1.5517883
1678,Middlesbrough (B),54.5574789,-1.2515282
1679,Greenwich London Boro,51.4747504,0.0329249
1680,Newham London Boro,51.541108,0.027185
1681,Croydon London Boro,51.3961216,-0.1052316
1682,Warrington (B),53.376347,-2.557238
1683,North East Lincolnshire (B),53.5519482,-0.092121
1684,North East Lincolnshire (B),53.5593256,-0.0762063
1685,Stockton-on-Tees (B),54.5322956,-1.2890202
1686,Redcar and Cleveland (B),54.5346871,-1.0741617
1687,Coventry District (B),52.412722,-1.459094
1688,Solihull District (B),52.4213135,-1.7611392
1689,Hillingdon London Boro,51.51884,-0.394887
1690,New Forest District,50.8511267,-1.4054831
1691,Darlington (B),54.5217702,-1.5315201
1692,West Berkshire,51.408732,-1.3177659
1693,West Berkshire,51.4042014,-1.2615645
1694,West Berkshire,51.3986815,-1.4518568
1695,West Berkshire,51.406879,-1.512214
1696,Cornwall,50.4558318,-4.4623073
1697,Gateshead District (B),54.9295023,-1.596192
1698,Oxford District (B),51.7747242,-1.2646368
1699,Mid Devon District,50.7875311,-3.6490968
1700,Lichfield District,52.686019,-1.81138
1701,Gateshead District (B),54.9649451,-1.7176159
1702,Gateshead District (B),54.9467096,-1.5957387
1703,Gateshead District (B),54.9532121,-1.6789594
1704,Worthing District (B),50.8122882,-0.391187
1705,Eastbourne District (B),50.7753903,0.2821789
1706,Exeter District (B),50.6966204,-3.5342845
1707,Tendring District,51.7869998,1.1498758
1708,Gateshead District (B),54.9538759,-1.6052228
1709,Newcastle upon Tyne District (B),54.9720621,-1.5763396
1710,Newcastle upon Tyne District (B),55.007021,-1.62831
1711,Epping Forest District,51.649042,0.07785
1712,Canterbury District (B),51.3630408,1.0348728
1713,Stockport District (B),53.4265104,-2.1538081
1714,City of Wolverhampton District (B),52.5658138,-2.1472488
1715,Folkestone and Hythe District,51.077952,1.163362
1716,City of Stoke-on-Trent (B),52.9656337,-2.1788002
1717,Scarborough District (B),54.270092,-0.398906
1718,North Lincolnshire (B),53.621936,-0.561011
1719,Hinckley and Bosworth District (B),52.576747,-1.31531
1720,Blaby District,52.576156,-1.1771681
1721,Blaby District,52.5812867,-1.1931755
1722,Stroud District,51.8065334,-2.2360495
1723,Barnet London Boro,51.5868257,-0.2026048
1724,Barnsley District (B),53.5376344,-1.3915605
1725,Rotherham District (B),53.3795941,-1.2303426
1726,Rotherham District (B),53.3793653,-1.2341847
1727,Hinckley and Bosworth District (B),52.6446574,-1.2359038
1728,South Somerset District,50.9390826,-2.637281
1729,South Somerset District,50.938901,-2.637877
1730,South Somerset District,50.938901,-2.637877
1731,South Somerset District,50.938729,-2.639482
1732,Harrogate District (B),54.0011,-1.525559
1733,East Staffordshire District (B),52.883341,-1.849735
1734,Stockton-on-Tees (B),54.5804704,-1.3110286
1735,Dartford District (B),51.4217929,0.2447339
1736,Wiltshire,51.4439395,-2.0069572
1737,City of Bristol (B),51.4851941,-2.5512903
1738,North Norfolk District,52.8286985,0.8488702
1739,South Staffordshire District,52.637745,-2.039545
1740,Torbay (B),50.478677,-3.519477
1741,Torbay (B),50.478677,-3.519477
1742,St. Albans District (B),51.7549808,-0.3310083
1743,South Staffordshire District,52.6332487,-2.2108624
1744,East Staffordshire District (B),52.9054192,-1.8731944
1745,West Northamptonshire,52.2449976,-0.9472748
1746,West Oxfordshire District,51.7893835,-1.477133
1747,Cornwall,50.1638868,-5.1355314
1748,Calderdale District (B),53.7527251,-1.8754306
1749,City of Plymouth (B),50.363157,-4.093587
1750,North Northamptonshire,52.3288795,-0.6174226
1751,Allerdale District (B),54.606299,-3.120259
1752,Waverley District (B),51.2066863,-0.7966863
1753,East Devon District,50.6270548,-3.3896849
1754,Staffordshire Moorlands District,53.0950839,-2.180263
1755,Sandwell District (B),52.5123426,-1.9815377
1756,City of Kingston upon Hull (B),53.7792829,-0.3035482
1757,City of Leicester (B),52.657706,-1.117418
1758,Newcastle-under-Lyme District (B),53.0826232,-2.2420763
1759,Rushcliffe District (B),52.83089,-1.1856
1760,Shropshire,52.726575,-2.751952
1761,Shropshire,52.642619,-2.878675
1762,Rutland,52.736707,-0.685263
1763,Burnley District (B),53.7956159,-2.2730984
1764,St. Albans District (B),51.7608599,-0.3397756
1765,Dacorum District (B),51.7574388,-0.4536147
1766,Shropshire,52.671799,-2.77034
1767,South Norfolk District,52.4919755,1.2366486
1768,Reading (B),51.456685,-1.01211
1769,Reading (B),51.451488,-0.98898
1770,"Bournemouth, Christchurch and Poole",50.755521,-1.875947
1771,Harrogate District (B),53.988005,-1.554279
1772,Sheffield District (B),53.3731397,-1.4939229
1773,Leeds District (B),53.926859,-1.382718
1774,East Riding of Yorkshire,53.6893479,-1.0168501
1775,Scarborough District (B),54.434231,-0.534541
1776,Breckland District,52.5964297,0.7855217
1777,Folkestone and Hythe District,51.1232399,1.1620831
1778,Worthing District (B),50.8142607,-0.3993418
1779,Worthing District (B),50.8126306,-0.3840436
1780,Doncaster District (B),53.556561,-1.141669
1781,Lancaster District (B),54.0769,-2.852557
1782,Gedling District (B),53.0077224,-1.1262436
1783,East Riding of Yorkshire,53.7144786,-0.1504056
1784,Sheffield District (B),53.3791447,-1.5191628
1785,Charnwood District (B),52.768967,-1.298175
1786,Thanet District,51.3846198,1.3377162
1787,South Norfolk District,52.578607,1.450919
1788,Worthing District (B),50.8131185,-0.3667002
1789,City of Leicester (B),52.6105268,-1.1078665
1790,Wakefield District (B),53.665701,-1.543287
1791,West Northamptonshire,52.204922,-0.8899215
1792,Kirklees District (B),53.7121612,-1.6892179
1793,North Northamptonshire,52.33843,-0.651882
1794,North Norfolk District,52.7792756,1.5477748
1795,Erewash District (B),52.9734205,-1.362863
1796,City of Derby (B),52.9265683,-1.5037038
1797,Tendring District,51.8307987,1.2481052
1798,North Somerset,51.341514,-2.978997
1799,Gateshead District (B),54.928719,-1.595872
1800,Gateshead District (B),54.929978,-1.596125
1801,Staffordshire Moorlands District,52.9954597,-1.9936566
1802,Thurrock (B),51.4771279,0.3358465
1803,"Bournemouth, Christchurch and Poole",50.7281678,-1.9523854
1804,Dartford District (B),51.3944393,0.3138918
1805,Northumberland,55.1605271,-1.6639944
1806,Northumberland,54.976425,-2.259672
1807,North Tyneside District (B),55.018833,-1.427964
1808,Bassetlaw District,53.3206066,-0.952749
1809,Ashfield District,53.0689075,-1.2948176
1810,Norwich District (B),52.6382897,1.2950799
1811,Tameside District (B),53.4944193,-2.1026999
1812,North Somerset,51.4362199,-2.858232
1813,City of Derby (B),52.935095,-1.494917
1814,Thanet District,51.3320721,1.4109742
1815,Salford District (B),53.4986167,-2.3105745
1816,Bath and North East Somerset,51.3674363,-2.5791591
1817,Wiltshire,51.080058,-1.9896855
1818,Wiltshire,51.1198317,-2.3034472
1819,Selby District,53.8023642,-1.0393136
1820,Selby District,53.7786836,-1.0763968
1821,Boston District (B),52.9526307,-0.0393947
1822,Canterbury District (B),51.3721072,1.1357115
1823,Canterbury District (B),51.3698597,1.1117325
1824,High Peak District (B),53.366799,-1.989291
1825,West Northamptonshire,52.2516028,-0.8814323
1826,West Northamptonshire,52.251874,-0.881895
1827,Winchester District (B),50.918976,-1.2586842
1828,Isle of Wight,50.7306011,-1.1522461
1829,Walsall District (B),52.6192834,-1.959357
1830,Nuneaton and Bedworth District (B),52.4829656,-1.4740036
1831,Castle Point District (B),51.5542106,0.5614537
1832,City of Southampton (B),50.892698,-1.373544
1833,Luton (B),51.895028,-0.416179
1834,Luton (B),51.9047679,-0.4596643
1835,Luton (B),51.8895898,-0.4223138
1836,Surrey Heath District (B),51.3305085,-0.7510476
1837,Mid Devon District,50.906762,-3.323697
1838,Bath and North East Somerset,51.418657,-2.498167
1839,Merton London Boro,51.4103,-0.159216
1840,Tonbridge and Malling District (B),51.2910602,0.4119475
1841,Tameside District (B),53.481791,-2.090539
1842,New Forest District,50.9204793,-1.5070575
1843,Torbay (B),50.4786825,-3.5237357
1844,Bassetlaw District,53.3515665,-0.9065106
1845,Lewes District,50.7883141,0.0049294
1846,East Devon District,50.6904494,-3.2374291
1847,Test Valley District,51.2075523,-1.4879966
1848,Wirral District (B),53.392361,-3.0665445
1849,Wyre District (B),53.8763536,-2.962673
1850,South Derbyshire District,52.8193621,-1.4214603
1851,Swale District (B),51.428268,0.803888
1852,Thanet District,51.3761758,1.3914591
1853,Barnsley District (B),53.544938,-1.4493687
1854,Greenwich London Boro,51.4320613,0.0740026
1855,Mid Devon District,50.8371909,-3.6831716
1856,North Tyneside District (B),55.0450507,-1.44415
1857,"Bournemouth, Christchurch and Poole",50.7243077,-1.8147428
1858,"Bournemouth, Christchurch and Poole",50.725869,-1.8365687
1859,Bassetlaw District,53.3695472,-1.0572365
1860,Harlow District,51.75616,0.103004
1861,Lichfield District,52.6406929,-1.8342808
1862,Hambleton District,54.22232,-1.336865
1863,Norwich District (B),52.614756,1.267099
1864,Bedford (B),52.1466759,-0.4598368
1865,North Norfolk District,52.7400517,1.4779117
1866,Leeds District (B),53.7382794,-1.3947469
1867,"Bournemouth, Christchurch and Poole",50.726626,-1.84433
1868,North Northamptonshire,52.49201,-0.700997
1869,Havering London Boro,51.55991,0.231978
1870,East Suffolk District,52.4158001,1.7137746
1871,Ryedale District,54.2535615,-0.9984066
1872,Dover District,51.1982849,1.3920817
1873,Leeds District (B),53.819436,-1.536711
1874,Tunbridge Wells District (B),51.1358215,0.2727899
1875,Lewes District,50.800286,-0.033741
1876,Hartlepool (B),54.6840253,-1.228728
1877,Lambeth London Boro,51.42603,-0.134864
1878,Ribble Valley District (B),53.773696,-2.4841215
1879,Bromley London Boro,51.4082309,0.0339417
1880,Bromley London Boro,51.41246,0.024969
1881,Tandridge District,51.2595479,-0.017275
1882,Basildon District (B),51.5714737,0.4770596
1883,Thurrock (B),51.5159389,0.4359048
1884,Coventry District (B),52.3925284,-1.4996491
1885,Tameside District (B),53.5167459,-2.0459738
1886,Tameside District (B),53.4977072,-2.1146015
1887,Tameside District (B),53.4439758,-2.1030597
1888,Knowsley District (B),53.4819383,-2.8955508
1889,Cheshire West and Chester (B),53.2073994,-2.9155127
1890,Tameside District (B),53.493417,-2.032021
1891,Knowsley District (B),53.406991,-2.847268
1892,Tameside District (B),53.486013,-2.06841
1893,Tameside District (B),53.4896425,-2.1560564
1894,Tameside District (B),53.4686808,-2.0722535
1895,Tameside District (B),53.4686808,-2.0722535
1896,Sutton London Boro,51.3646039,-0.2064575
1897,Redbridge London Boro,51.565509,0.059999
1898,East Riding of Yorkshire,54.084214,-0.190583
1899,Liverpool District (B),53.4385573,-2.9774122
1900,Stockport District (B),53.3964288,-2.1712945
1901,Bromley London Boro,51.397707,0.101819
1902,City of Plymouth (B),50.3798948,-4.1689997
1903,Welwyn Hatfield District (B),51.7997811,-0.1733014
1904,Welwyn Hatfield District (B),51.7919843,-0.1796343
1905,Welwyn Hatfield District (B),51.801116,-0.1660537
1906,Stafford District (B),52.9420896,-2.1673194
1907,Blackburn with Darwen (B),53.7568172,-2.4918735
1908,Burnley District (B),53.7886787,-2.2341661
1909,Colchester District (B),51.837691,0.933343
1910,Torbay (B),50.439781,-3.567101
1911,Leeds District (B),53.8016812,-1.6089363
1912,Buckinghamshire,51.575467,-0.710924
1913,City of Bristol (B),51.4882197,-2.5831517
1914,City of Bristol (B),51.4886246,-2.5830992
1915,Redcar and Cleveland (B),54.557048,-1.140652
1916,Redcar and Cleveland (B),54.616463,-1.079704
1917,Middlesbrough (B),54.5675638,-1.2330928
1918,Redcar and Cleveland (B),54.5768479,-1.1574542
1919,Sheffield District (B),53.3565538,-1.427561
1920,North East Lincolnshire (B),53.554067,-0.080145
1921,City of Derby (B),52.890318,-1.431734
1922,Newark and Sherwood District,53.1507082,-0.7571101
1923,Erewash District (B),52.9002091,-1.3156955
1924,Liverpool District (B),53.3630845,-2.9149506
1925,City of Portsmouth (B),50.7843702,-1.0742899
1926,Thurrock (B),51.4894108,0.336388
1927,"Bournemouth, Christchurch and Poole",50.7645913,-1.8904992
1928,Breckland District,52.7338917,1.068323
1929,Merton London Boro,51.3981806,-0.1702833
1930,City of Kingston upon Hull (B),53.7356962,-0.3638112
1931,Lewisham London Boro,51.4408339,-0.0134769
1932,Haringey London Boro,51.586822,-0.077243
1933,Ealing London Boro,51.5124266,-0.3648051
1934,Redbridge London Boro,51.606944,0.02776
1935,Blackburn with Darwen (B),53.701401,-2.4636438
1936,Bradford District (B),53.9150043,-1.9451413
1937,Hastings District (B),50.8554163,0.5523197
1938,St. Helens District (B),53.430501,-2.761358
1939,Haringey London Boro,51.6029997,-0.109946
1940,Cheltenham District (B),51.8906722,-2.0860769
1941,Kirklees District (B),53.7067828,-1.6710636
1942,Gloucester District (B),51.85628,-2.198611
1943,Buckinghamshire,51.6153109,-0.7492987
1944,Stroud District,51.727817,-2.283554
1945,Sunderland District (B),54.8982051,-1.3916445
1946,Haringey London Boro,51.597736,-0.072161
1947,Haringey London Boro,51.591492,-0.079659
1948,City of Peterborough (B),52.5897447,-0.208282
1949,City of Peterborough (B),52.6212562,-0.2878051
1950,"Bournemouth, Christchurch and Poole",50.716378,-1.918586
1951,South Lakeland District,54.206346,-2.95618
1952,Kirklees District (B),53.7607611,-1.6969417
1953,Croydon London Boro,51.393205,-0.069258
1954,North Somerset,51.3905405,-2.8256182
1955,West Devon District (B),50.5119274,-4.1105156
1956,East Riding of Yorkshire,53.9142929,-0.1614712
1957,Hammersmith and Fulham London Boro,51.48891,-0.207749
1958,North Norfolk District,52.928289,1.3013679
1959,Exeter District (B),50.7185909,-3.5011447
1960,City of Bristol (B),51.450344,-2.852155
1961,Birmingham District (B),52.47358,-1.96344
1962,King's Lynn and West Norfolk District (B),52.776532,0.458917
1963,Scarborough District (B),54.2765334,-0.4211724
1964,Sunderland District (B),54.866509,-1.3635
1965,Medway (B),51.3699463,0.5147871
1966,Torbay (B),50.4459308,-3.5589497
1967,City of Kingston upon Hull (B),53.7518544,-0.3399626
1968,Rotherham District (B),53.4528947,-1.3681659
1969,Birmingham District (B),52.4775134,-1.7672842
1970,Birmingham District (B),52.4504159,-1.8297417
1971,Birmingham District (B),52.449125,-1.825759
1972,Bassetlaw District,53.423946,-0.848122
1973,Walsall District (B),52.5747482,-1.973256
1974,Wyre Forest District,52.3830555,-2.2364502
1975,Northumberland,54.9687411,-2.0931745
1976,Rutland,52.631239,-0.7017686
1977,Hyndburn District (B),53.7503812,-2.4108792
1978,Hammersmith and Fulham London Boro,51.4962116,-0.2422109
1979,Central Bedfordshire,51.8442946,-0.5267072
1980,Warrington (B),53.3755402,-2.562283
1981,South Somerset District,50.9132236,-2.7910499
1982,Oldham District (B),53.5529658,-2.0846991
1983,Sedgemoor District,51.185812,-3.08884
1984,Bury District (B),53.585166,-2.326388
1985,Stafford District (B),52.800262,-2.1255406
1986,County Durham,54.7863316,-1.5912124
1987,Hartlepool (B),54.7028767,-1.2310707
1988,South Tyneside District (B),54.9701296,-1.4743774
1989,North Tyneside District (B),55.0275668,-1.4633965
1990,Redcar and Cleveland (B),54.6027883,-1.0771003
1991,Northumberland,55.08736,-1.579298
1992,Newcastle upon Tyne District (B),54.9800336,-1.6494358
1993,Northumberland,55.1590157,-1.6907756
1994,Bolton District (B),53.5894266,-2.4063996
1995,Lancaster District (B),54.077263,-2.8456406
1996,Ashford District (B),51.168902,0.886221
1997,Birmingham District (B),52.5318238,-1.8261992
1998,Leeds District (B),53.8311689,-1.539955
1999,Arun District,50.782847,-0.686085
2000,Stockton-on-Tees (B),54.560676,-1.302347
2001,City of Nottingham (B),52.972184,-1.156951
2002,Manchester District (B),53.4071866,-2.2694137
2003,City of Derby (B),52.9080393,-1.4930493
2004,County of Herefordshire,51.909435,-2.58464
2005,Bradford District (B),53.8764122,-1.9165661
2006,Folkestone and Hythe District,51.0723102,1.1114152
2007,Reigate and Banstead District (B),51.3183422,-0.1892908
2008,Mole Valley District,51.3141134,-0.3459793
2009,Stockton-on-Tees (B),54.5634892,-1.3007831
2010,Sefton District (B),53.6331932,-3.0274666
2011,East Riding of Yorkshire,54.104012,-0.205765
2012,Tonbridge and Malling District (B),51.3300398,0.4473986
2013,Medway (B),51.4111982,0.5052006
2014,Pendle District (B),53.8564398,-2.1724012
2015,King's Lynn and West Norfolk District (B),52.7045582,0.2417247
2016,Torridge District,51.0297065,-4.2366577
2017,"Bournemouth, Christchurch and Poole",50.7240709,-1.8574995
2018,Preston District (B),53.7825801,-2.6579928
2019,Lichfield District,52.735575,-1.866756
2020,Lichfield District,52.735575,-1.866756
2021,Shropshire,52.6868101,-2.765101
2022,Shropshire,52.382865,-2.563519
2023,Broadland District,52.6801615,1.1943984
2024,Hillingdon London Boro,51.524116,-0.443332
2025,Hillingdon London Boro,51.524116,-0.443332
2026,Folkestone and Hythe District,50.9846257,0.9693045
2027,Waltham Forest London Boro,51.5629637,0.0013207
2028,City of Nottingham (B),52.981232,-1.144994
2029,York (B),53.965811,-0.980951
2030,Hounslow London Boro,51.434118,-0.384047
2031,Barnsley District (B),53.5749757,-1.3764664
2032,Ashfield District,53.126189,-1.242457
2033,Folkestone and Hythe District,50.9881566,0.969815
2034,Folkestone and Hythe District,50.9844911,0.9668165
2035,Chelmsford District (B),51.7202384,0.494914
2036,Enfield London Boro,51.6219335,-0.1102428
2037,Wandsworth London Boro,51.4591982,-0.2415748
2038,East Lindsey District,53.1371919,0.3429335
2039,Redbridge London Boro,51.5678162,0.0952689
2040,Redbridge London Boro,51.567196,0.061216
2041,Croydon London Boro,51.4062407,-0.0794066
2042,Newark and Sherwood District,53.0186561,-1.0135915
2043,West Lindsey District,53.20912,-0.329
2044,City of Nottingham (B),53.0122448,-1.1938212
2045,South Norfolk District,52.5717232,1.4318853
2046,East Riding of Yorkshire,53.9856,-0.536792
2047,Wyre District (B),53.8554084,-2.8663211
2048,Wyre District (B),53.8515789,-2.9873849
2049,City of Derby (B),52.9103664,-1.4908331
2050,Enfield London Boro,51.6334016,-0.0569796
2051,Islington London Boro,51.550859,-0.12721
2052,Vale of White Horse District,51.6719884,-1.2818755
2053,City of Derby (B),52.9177094,-1.4697721
2054,City of Plymouth (B),50.377016,-4.169501
2055,Birmingham District (B),52.5133701,-1.7890064
2056,Bassetlaw District,53.3033014,-1.1189715
2057,Leeds District (B),53.8276111,-1.6199831
2058,Birmingham District (B),52.5193778,-1.7785525
2059,Cambridge District (B),52.1923122,0.1299982
2060,Knowsley District (B),53.412789,-2.821581
2061,Lancaster District (B),54.0758934,-2.8384295
2062,"Bournemouth, Christchurch and Poole",50.731488,-1.865842
2063,Wirral District (B),53.43013,-3.056709
2064,Carlisle District (B),54.9711732,-2.9533872
2065,"Bournemouth, Christchurch and Poole",50.708938,-1.945324
2066,Leeds District (B),53.7904143,-1.402634
2067,South Gloucestershire,51.436917,-2.491806
2068,Bolton District (B),53.564039,-2.445532
2069,Breckland District,52.679433,0.9579085
2070,Bedford (B),52.0968938,-0.4661318
2071,The City of Brighton and Hove (B),50.8321872,-0.1027539
2072,King's Lynn and West Norfolk District (B),52.5235546,0.2468651
2073,Trafford District (B),53.3811962,-2.3714451
2074,Ribble Valley District (B),53.880374,-2.3811206
2075,Chesterfield District (B),53.2467938,-1.3340239
2076,Teignbridge District,50.549617,-3.49992
2077,Medway (B),51.3356456,0.5401599
2078,City of Plymouth (B),50.3855354,-4.0636939
2079,Wakefield District (B),53.590036,-1.319516
2080,Mid Sussex District,50.960544,-0.113766
2081,Enfield London Boro,51.622463,-0.1057135
2082,Barking and Dagenham London Boro,51.533566,0.100631
2083,Medway (B),51.377218,0.522515
2084,Somerset West and Taunton District,50.9737258,-3.2075859
2085,Luton (B),51.9176036,-0.430071
2086,North East Derbyshire District,53.3057585,-1.3724123
2087,Tameside District (B),53.4734382,-2.0680582
2088,Tameside District (B),53.5003091,-2.0755335
2089,Tameside District (B),53.4457469,-2.0640993
2090,Knowsley District (B),53.406991,-2.847268
2091,Kirklees District (B),53.6521072,-1.8246738
2092,Tameside District (B),53.4606238,-2.0623446
2093,Wigan District (B),53.5323864,-2.6403773
2094,Kirklees District (B),53.5789468,-1.7852433
2095,Malvern Hills District,52.112197,-2.319719
2096,East Devon District,50.706427,-3.07042
2097,Harborough District,52.481272,-0.910958
2098,Southend-on-Sea (B),51.5567631,0.6786762
2099,Broxtowe District (B),52.920234,-1.2052876
2100,City of Bristol (B),51.469116,-2.58596
2101,City of Bristol (B),51.481114,-2.6083769
2102,City of Nottingham (B),52.9624896,-1.1666235
2103,City of Peterborough (B),52.6016219,-0.2400773
2104,Lambeth London Boro,51.4183132,-0.1196023
2105,Bolton District (B),53.5685066,-2.4619617
2106,North Devon District,51.0442702,-3.9747443
2107,County Durham,54.698471,-1.605207
2108,Amber Valley District (B),53.0574734,-1.3926886
2109,North Northamptonshire,52.3354125,-0.5452567
2110,North Devon District,51.0875443,-4.0610033
2111,Isle of Wight,50.727941,-1.1750627
2112,South Somerset District,51.0905837,-2.5154794
2113,Bath and North East Somerset,51.387991,-2.394505
2114,East Devon District,50.7020084,-3.0843248
2115,Vale of White Horse District,51.7320656,-1.3301418
2116,City of Plymouth (B),50.377694,-4.166678
2117,County Durham,54.840476,-1.333453
2118,Sunderland District (B),54.8984686,-1.392233
